$GP$RMC,161119,A,3646.0421,N,09702.9899,W,000.0,181.7,111010,004.9,E*64
$GPGGA,161119,3646.0421,N,09702.9899,W,2,11,0.8,313.6,M,-26.7,M,,*70
$GPGSA,A,3,07,08,11,13,17,19,24,26,28,48,51,,1.6,0.8,1.3*3C
$GPRMC,161120,A,3646.0421,N,09702.9899,W,000.0,181.7,111010,004.9,E*6E
$GPGGA,161120,3646.0421,N,09702.9899,W,2,11,0.8,313.6,M,-26.7,M,,*7A
$GPGSA,A,3,07,08,11,13,17,19,24,26,28,48,51,,1.6,0.8,1.3*3C
$GPRMC,161121,A,3646.0421,N,09702.9899,W,000.0,181.7,111010,004.9,E*6F
$GPGGA,161121,3646.0421,N,09702.9899,W,2,11,0.8,313.6,M,-26.7,M,,*7B
$GPGSA,A,3,07,08,11,13,17,19,24,26,28,48,51,,1.6,0.8,1.3*3C
$GPRMC,161122,A,3646.0421,N,09702.9900,W,000.0,181.7,111010,004.9,E*6D
$GPGGA,161122,3646.0421,N,09702.9900,W,2,11,0.8,313.7,M,-26.7,M,,*78
$GPGSA,A,3,07,08,11,13,17,19,24,26,28,48,51,,1.6,0.8,1.3*3C
$GPRMC,161123,A,3646.0420,N,09702.9900,W,000.0,181.7,111010,004.9,E*6D
$GPGGA,161123,3646.0420,N,09702.9900,W,2,11,0.8,313.8,M,-26.7,M,,*77
$GPGSA,A,3,07,08,11,13,17,19,24,26,28,48,51,,1.6,0.8,1.3*3C
$GPRMC,161124,A,3646.0420,N,09702.9900,W,000.0,181.7,111010,004.9,E*6A
$GPGGA,161124,3646.0420,N,09702.9900,W,2,11,0.8,313.9,M,-26.7,M,,*71
$GPGSA,A,3,07,08,11,13,17,19,24,26,28,48,51,,1.6,0.8,1.3*3C
$GPRMC,161125,A,3646.0418,N,09702.9900,W,000.7,182.0,111010,004.9,E*63
$GPGGA,161125,3646.0418,N,09702.9900,W,2,11,0.8,314.0,M,-26.7,M,,*75
$GPGSA,A,3,07,08,11,13,17,19,24,26,28,48,51,,1.6,0.8,1.3*3C
$GPRMC,161126,A,3646.0399,N,09702.9905,W,003.5,180.7,111010,004.9,E*6F
$GPGGA,161126,3646.0399,N,09702.9905,W,2,11,0.8,313.9,M,-26.7,M,,*73
$GPGSA,A,3,07,08,11,13,17,19,24,26,28,48,51,,1.6,0.8,1.3*3C
$GPRMC,161127,A,3646.0377,N,09702.9901,W,005.8,175.1,111010,004.9,E*6D
$GPGGA,161127,3646.0377,N,09702.9901,W,2,11,0.8,313.9,M,-26.7,M,,*76
$GPGSA,A,3,07,08,11,13,17,19,24,26,28,48,51,,1.6,0.8,1.3*3C
$GPRMC,161128,A,3646.0355,N,09702.9882,W,007.4,156.5,111010,004.9,E*63
$GPGGA,161128,3646.0355,N,09702.9882,W,2,11,0.9,314.1,M,-26.7,M,,*7D
$GPGSA,A,3,07,08,11,13,17,19,24,26,28,48,51,,1.6,0.9,1.4*3A
$GPRMC,161129,A,3646.0340,N,09702.9848,W,008.8,134.4,111010,004.9,E*66
$GPGGA,161129,3646.0340,N,09702.9848,W,2,11,0.9,314.3,M,-26.7,M,,*7C
$GPGSA,A,3,07,08,11,13,17,19,24,26,28,48,51,,1.6,0.9,1.4*3A
$GPRMC,161130,A,3646.0334,N,09702.9800,W,010.9,112.4,111010,004.9,E*6D
$GPGGA,161130,3646.0334,N,09702.9800,W,2,11,0.8,314.4,M,-26.7,M,,*7D
$GPGSA,A,3,07,08,11,13,17,19,24,26,28,48,51,,1.6,0.8,1.3*3C
$GPRMC,161131,A,3646.0337,N,09702.9744,W,013.2,096.7,111010,004.9,E*66
$GPGGA,161131,3646.0337,N,09702.9744,W,2,11,0.9,314.5,M,-26.7,M,,*70
$GPGSA,A,3,07,08,11,13,17,19,24,26,28,48,51,,1.7,0.9,1.4*3B
$GPRMC,161132,A,3646.0337,N,09702.9689,W,014.5,092.8,111010,004.9,E*6E
$GPGGA,161132,3646.0337,N,09702.9689,W,2,11,0.9,314.6,M,-26.7,M,,*70
$GPGSA,A,3,07,08,11,13,17,19,24,26,28,48,51,,1.7,0.9,1.5*3A
$GPRMC,161133,A,3646.0338,N,09702.9647,W,013.3,090.7,111010,004.9,E*6E
$GPGGA,161133,3646.0338,N,09702.9647,W,2,11,0.9,314.7,M,-26.7,M,,*7D
$GPGSA,A,3,07,08,11,13,17,19,24,26,28,48,51,,1.7,0.9,1.5*3A
$GPRMC,161134,A,3646.0339,N,09702.9626,W,009.7,089.1,111010,004.9,E*6E
$GPGGA,161134,3646.0339,N,09702.9626,W,2,11,0.9,314.7,M,-26.7,M,,*7C
$GPGSA,A,3,07,08,11,13,17,19,24,26,28,48,51,,1.8,0.9,1.5*35
$GPRMC,161135,A,3646.0341,N,09702.9614,W,006.4,086.4,111010,004.9,E*67
$GPGGA,161135,3646.0341,N,09702.9614,W,2,11,0.9,314.8,M,-26.7,M,,*7C
$GPGSA,A,3,07,08,11,13,17,19,24,26,28,48,51,,1.8,0.9,1.5*35
$GPRMC,161136,A,3646.0350,N,09702.9593,W,006.5,072.9,111010,004.9,E*6F
$GPGGA,161136,3646.0350,N,09702.9593,W,2,11,0.8,314.9,M,-26.7,M,,*73
$GPGSA,A,3,07,08,11,13,17,19,24,26,28,48,51,,1.6,0.8,1.3*3C
$GPRMC,161137,A,3646.0376,N,09702.9566,W,009.1,050.7,111010,004.9,E*65
$GPGGA,161137,3646.0376,N,09702.9566,W,2,11,0.8,314.8,M,-26.7,M,,*7D
$GPGSA,A,3,07,08,11,13,17,19,24,26,28,48,51,,1.6,0.8,1.4*3B
$GPRMC,161138,A,3646.0418,N,09702.9553,W,011.7,027.4,111010,004.9,E*6F
$GPGGA,161138,3646.0418,N,09702.9553,W,2,11,0.9,314.8,M,-26.7,M,,*7A
$GPGSA,A,3,07,08,11,13,17,19,24,26,28,48,51,,1.7,0.9,1.4*3B
$GPRMC,161139,A,3646.0466,N,09702.9556,W,013.9,008.8,111010,004.9,E*6F
$GPGGA,161139,3646.0466,N,09702.9556,W,2,11,0.9,315.0,M,-26.7,M,,*7E
$GPGSA,A,3,07,08,11,13,17,19,24,26,28,48,51,,1.7,0.9,1.4*3B
$GPRMC,161140,A,3646.0516,N,09702.9557,W,015.9,003.2,111010,004.9,E*61
$GPGGA,161140,3646.0516,N,09702.9557,W,2,11,0.9,315.0,M,-26.7,M,,*77
$GPGSA,A,3,07,08,11,13,17,19,24,26,28,48,51,,1.7,0.9,1.5*3A
$GPRMC,161141,A,3646.0571,N,09702.9556,W,017.9,002.1,111010,004.9,E*60
$GPGGA,161141,3646.0571,N,09702.9556,W,2,11,0.9,314.9,M,-26.7,M,,*7E
$GPGSA,A,3,07,08,11,13,17,19,24,26,28,48,51,,1.7,0.9,1.5*3A
$GPRMC,161142,A,3646.0630,N,09702.9556,W,019.6,000.8,111010,004.9,E*6F
$GPGGA,161142,3646.0630,N,09702.9556,W,2,11,0.9,314.9,M,-26.7,M,,*7B
$GPGSA,A,3,07,08,11,13,17,19,24,26,28,48,51,,1.8,0.9,1.5*35
$GPRMC,161143,A,3646.0693,N,09702.9557,W,021.1,000.0,111010,004.9,E*62
$GPGGA,161143,3646.0693,N,09702.9557,W,2,11,0.9,314.9,M,-26.7,M,,*72
$GPGSA,A,3,07,08,11,13,17,19,24,26,28,48,51,,1.8,0.9,1.5*35
$GPRMC,161144,A,3646.0758,N,09702.9556,W,022.1,000.0,111010,004.9,E*61
$GPGGA,161144,3646.0758,N,09702.9556,W,2,11,0.9,314.9,M,-26.7,M,,*72
$GPGSA,A,3,07,08,11,13,17,19,24,26,28,48,51,,1.8,0.9,1.6*36
$GPRMC,161145,A,3646.0820,N,09702.9557,W,022.3,359.8,111010,004.9,E*64
$GPGGA,161145,3646.0820,N,09702.9557,W,2,11,0.9,315.0,M,-26.7,M,,*7A
$GPGSA,A,3,07,08,11,13,17,19,24,26,28,48,51,,1.8,0.9,1.6*36
$GPRMC,161146,A,3646.0884,N,09702.9557,W,022.6,359.7,111010,004.9,E*63
$GPGGA,161146,3646.0884,N,09702.9557,W,2,11,0.9,315.1,M,-26.7,M,,*76
$GPGSA,A,3,07,08,11,13,17,19,24,26,28,48,51,,1.8,0.9,1.6*36
$GPRMC,161147,A,3646.0952,N,09702.9556,W,023.4,000.1,111010,004.9,E*63
$GPGGA,161147,3646.0952,N,09702.9556,W,2,11,0.9,315.2,M,-26.7,M,,*7F
$GPGSA,A,3,07,08,11,13,17,19,24,26,28,48,51,,1.8,0.9,1.6*36
$GPRMC,161148,A,3646.1023,N,09702.9556,W,024.5,000.1,111010,004.9,E*64
$GPGGA,161148,3646.1023,N,09702.9556,W,2,11,0.9,315.2,M,-26.7,M,,*7E
$GPGSA,A,3,07,08,11,13,17,19,24,26,28,48,51,,1.8,0.9,1.6*36
$GPRMC,161149,A,3646.1097,N,09702.9555,W,025.5,000.4,111010,004.9,E*6D
$GPGGA,161149,3646.1097,N,09702.9555,W,2,11,0.9,315.4,M,-26.7,M,,*75
$GPGSA,A,3,07,08,11,13,17,19,24,26,28,48,51,,1.8,0.9,1.6*36
$GPRMC,161150,A,3646.1173,N,09702.9553,W,026.4,000.8,111010,004.9,E*66
$GPGGA,161150,3646.1173,N,09702.9553,W,2,11,0.9,315.5,M,-26.7,M,,*71
$GPGSA,A,3,07,08,11,13,17,19,24,26,28,48,51,,1.8,0.9,1.6*36
$GPRMC,161151,A,3646.1250,N,09702.9551,W,027.1,000.9,111010,004.9,E*62
$GPGGA,161151,3646.1250,N,09702.9551,W,2,11,0.9,315.8,M,-26.7,M,,*7D
$GPGSA,A,3,07,08,11,13,17,19,24,26,28,48,51,,1.9,0.9,1.6*37
$GPRMC,161152,A,3646.1329,N,09702.9549,W,027.7,000.9,111010,004.9,E*61
$GPGGA,161152,3646.1329,N,09702.9549,W,2,11,0.9,316.1,M,-26.7,M,,*72
$GPGSA,A,3,07,08,11,13,17,19,24,26,28,48,51,,1.9,0.9,1.6*37
$GPRMC,161153,A,3646.1408,N,09702.9548,W,028.2,000.7,111010,004.9,E*61
$GPGGA,161153,3646.1408,N,09702.9548,W,2,11,0.9,316.1,M,-26.7,M,,*76
$GPGSA,A,3,07,08,11,13,17,19,24,26,28,48,51,,1.9,0.9,1.6*37
$GPRMC,161154,A,3646.1489,N,09702.9548,W,028.7,000.5,111010,004.9,E*68
$GPGGA,161154,3646.1489,N,09702.9548,W,2,11,0.9,316.1,M,-26.7,M,,*78
$GPGSA,A,3,07,08,11,13,17,19,24,26,28,48,51,,1.9,0.9,1.6*37
$GPRMC,161155,A,3646.1571,N,09702.9547,W,029.0,000.4,111010,004.9,E*67
$GPGGA,161155,3646.1571,N,09702.9547,W,2,11,0.8,316.1,M,-26.7,M,,*71
$GPGSA,A,3,07,08,11,13,17,19,24,26,28,48,51,,1.6,0.8,1.3*3C
$GPRMC,161156,A,3646.1653,N,09702.9546,W,029.3,000.4,111010,004.9,E*65
$GPGGA,161156,3646.1653,N,09702.9546,W,2,11,0.8,316.2,M,-26.7,M,,*73
$GPGSA,A,3,07,08,11,13,17,19,24,26,28,48,51,,1.6,0.8,1.4*3B
$GPRMC,161157,A,3646.1736,N,09702.9545,W,029.5,000.4,111010,004.9,E*63
$GPGGA,161157,3646.1736,N,09702.9545,W,2,11,0.8,316.1,M,-26.7,M,,*70
$GPGSA,A,3,07,08,11,13,17,19,24,26,28,48,51,,1.6,0.8,1.4*3B
$GPRMC,161158,A,3646.1819,N,09702.9544,W,029.7,000.4,111010,004.9,E*6D
$GPGGA,161158,3646.1819,N,09702.9544,W,2,11,0.8,316.1,M,-26.7,M,,*7C
$GPGSA,A,3,07,08,11,13,17,19,24,26,28,48,51,,1.6,0.8,1.4*3B
$GPRMC,161159,A,3646.1902,N,09702.9543,W,029.7,000.6,111010,004.9,E*62
$GPGGA,161159,3646.1902,N,09702.9543,W,2,11,0.8,316.2,M,-26.7,M,,*72
$GPGSA,A,3,07,08,11,13,17,19,24,26,28,48,51,,1.6,0.8,1.4*3B
$GPRMC,161200,A,3646.1984,N,09702.9541,W,029.7,000.7,111010,004.9,E*60
$GPGGA,161200,3646.1984,N,09702.9541,W,2,11,0.8,316.2,M,-26.7,M,,*71
$GPGSA,A,3,07,08,11,13,17,19,24,26,28,48,51,,1.6,0.8,1.4*3B
$GPRMC,161201,A,3646.2068,N,09702.9540,W,029.8,000.8,111010,004.9,E*68
$GPGGA,161201,3646.2068,N,09702.9540,W,2,11,0.8,316.3,M,-26.7,M,,*78
$GPGSA,A,3,07,08,11,13,17,19,24,26,28,48,51,,1.6,0.8,1.4*3B
$GPRMC,161202,A,3646.2151,N,09702.9538,W,029.9,000.9,111010,004.9,E*6F
$GPGGA,161202,3646.2151,N,09702.9538,W,2,11,0.8,316.3,M,-26.7,M,,*7F
$GPGSA,A,3,07,08,11,13,17,19,24,26,28,48,51,,1.6,0.8,1.4*3B
$GPRMC,161203,A,3646.2235,N,09702.9537,W,030.0,000.7,111010,004.9,E*6F
$GPGGA,161203,3646.2235,N,09702.9537,W,2,11,0.8,316.4,M,-26.7,M,,*77
$GPGSA,A,3,07,08,11,13,17,19,24,26,28,48,51,,1.6,0.8,1.4*3B
$GPRMC,161204,A,3646.2318,N,09702.9536,W,030.0,000.5,111010,004.9,E*65
$GPGGA,161204,3646.2318,N,09702.9536,W,2,11,0.9,316.5,M,-26.7,M,,*7F
$GPGSA,A,3,07,08,11,13,17,19,24,26,28,48,51,,1.7,0.9,1.4*3B
$GPRMC,161205,A,3646.2402,N,09702.9536,W,030.0,000.2,111010,004.9,E*6F
$GPGGA,161205,3646.2402,N,09702.9536,W,2,11,0.9,316.5,M,-26.7,M,,*72
$GPGSA,A,3,07,08,11,13,17,19,24,26,28,48,51,,1.7,0.9,1.4*3B
$GPRMC,161206,A,3646.2485,N,09702.9537,W,029.9,360.0,111010,004.9,E*64
$GPGGA,161206,3646.2485,N,09702.9537,W,2,11,0.9,316.6,M,-26.7,M,,*7C
$GPGSA,A,3,07,08,11,13,17,19,24,26,28,48,51,,1.7,0.9,1.4*3B
$GPRMC,161207,A,3646.2568,N,09702.9537,W,030.0,359.9,111010,004.9,E*65
$GPGGA,161207,3646.2568,N,09702.9537,W,2,11,0.9,316.8,M,-26.7,M,,*71
$GPGSA,A,3,07,08,11,13,17,19,24,26,28,48,51,,1.7,0.9,1.4*3B
$GPRMC,161208,A,3646.2652,N,09702.9536,W,030.0,000.2,111010,004.9,E*65
$GPGGA,161208,3646.2652,N,09702.9536,W,2,11,0.9,316.8,M,-26.7,M,,*75
$GPGSA,A,3,07,08,11,13,17,19,24,26,28,48,51,,1.7,0.9,1.5*3A
$GPRMC,161209,A,3646.2736,N,09702.9535,W,030.1,000.4,111010,004.9,E*63
$GPGGA,161209,3646.2736,N,09702.9535,W,2,11,0.9,316.8,M,-26.7,M,,*74
$GPGSA,A,3,07,08,11,13,17,19,24,26,28,48,51,,1.8,0.9,1.5*35
$GPRMC,161210,A,3646.2820,N,09702.9534,W,030.3,000.4,111010,004.9,E*60
$GPGGA,161210,3646.2820,N,09702.9534,W,2,11,0.9,316.7,M,-26.7,M,,*7A
$GPGSA,A,3,07,08,11,13,17,19,24,26,28,48,51,,1.8,0.9,1.5*35
$GPRMC,161211,A,3646.2907,N,09702.9534,W,030.7,000.3,111010,004.9,E*66
$GPGGA,161211,3646.2907,N,09702.9534,W,2,11,0.9,316.6,M,-26.7,M,,*7E
$GPGSA,A,3,07,08,11,13,17,19,24,26,28,48,51,,1.8,0.9,1.5*35
$GPRMC,161212,A,3646.2995,N,09702.9534,W,031.2,000.1,111010,004.9,E*68
$GPGGA,161212,3646.2995,N,09702.9534,W,2,11,0.9,316.5,M,-26.7,M,,*75
$GPGSA,A,3,07,08,11,13,17,19,24,26,28,48,51,,1.8,0.9,1.5*35
$GPRMC,161213,A,3646.3084,N,09702.9534,W,031.7,359.9,111010,004.9,E*63
$GPGGA,161213,3646.3084,N,09702.9534,W,2,11,0.9,316.3,M,-26.7,M,,*7A
$GPGSA,A,3,07,08,11,13,17,19,24,26,28,48,51,,1.8,0.9,1.5*35
$GPRMC,161214,A,3646.3175,N,09702.9535,W,032.1,359.8,111010,004.9,E*6E
$GPGGA,161214,3646.3175,N,09702.9535,W,2,11,0.9,316.3,M,-26.7,M,,*73
$GPGSA,A,3,07,08,11,13,17,19,24,26,28,48,51,,1.8,0.9,1.5*35
$GPRMC,161215,A,3646.3266,N,09702.9535,W,032.5,359.8,111010,004.9,E*6A
$GPGGA,161215,3646.3266,N,09702.9535,W,2,11,0.9,316.3,M,-26.7,M,,*73
$GPGSA,A,3,07,08,11,13,17,19,24,26,28,48,51,,1.8,0.9,1.6*36
$GPRMC,161216,A,3646.3358,N,09702.9535,W,032.8,359.9,111010,004.9,E*69
$GPGGA,161216,3646.3358,N,09702.9535,W,2,11,0.9,316.2,M,-26.7,M,,*7D
$GPGSA,A,3,07,08,11,13,17,19,24,26,28,48,51,,1.8,0.9,1.6*36
$GPRMC,161217,A,3646.3452,N,09702.9534,W,033.2,000.1,111010,004.9,E*68
$GPGGA,161217,3646.3452,N,09702.9534,W,2,11,0.9,316.0,M,-26.7,M,,*72
$GPGSA,A,3,07,08,11,13,17,19,24,26,28,48,51,,1.8,0.9,1.6*36
$GPRMC,161218,A,3646.3547,N,09702.9533,W,033.7,000.2,111010,004.9,E*63
$GPGGA,161218,3646.3547,N,09702.9533,W,2,11,0.9,315.8,M,-26.7,M,,*74
$GPGSA,A,3,07,08,11,13,17,19,24,26,28,48,51,,1.8,0.9,1.6*36
$GPRMC,161219,A,3646.3643,N,09702.9532,W,034.1,000.3,111010,004.9,E*64
$GPGGA,161219,3646.3643,N,09702.9532,W,2,10,0.9,315.7,M,-26.7,M,,*7D
$GPGSA,A,3,07,08,11,,17,19,24,26,28,48,51,,1.8,0.9,1.6*34
$GPRMC,161220,A,3646.3739,N,09702.9532,W,034.4,000.3,111010,004.9,E*67
$GPGGA,161220,3646.3739,N,09702.9532,W,2,10,0.9,315.8,M,-26.7,M,,*74
$GPGSA,A,3,07,08,11,,17,19,24,26,28,48,51,,1.8,0.9,1.6*34
$GPRMC,161221,A,3646.3836,N,09702.9531,W,034.6,000.2,111010,004.9,E*66
$GPGGA,161221,3646.3836,N,09702.9531,W,2,10,0.9,315.6,M,-26.7,M,,*78
$GPGSA,A,3,07,08,11,,17,19,24,26,28,48,51,,1.8,0.9,1.6*34
$GPRMC,161222,A,3646.3934,N,09702.9532,W,034.9,000.0,111010,004.9,E*68
$GPGGA,161222,3646.3934,N,09702.9532,W,2,10,0.9,315.7,M,-26.7,M,,*7A
$GPGSA,A,3,07,08,11,,17,19,24,26,28,48,51,,1.8,0.9,1.6*34
$GPRMC,161223,A,3646.4033,N,09702.9532,W,035.1,359.8,111010,004.9,E*6E
$GPGGA,161223,3646.4033,N,09702.9532,W,2,10,0.9,315.8,M,-26.7,M,,*7D
$GPGSA,A,3,07,08,11,,17,19,24,26,28,48,51,,1.9,0.9,1.6*35
$GPRMC,161224,A,3646.4132,N,09702.9533,W,035.4,359.7,111010,004.9,E*62
$GPGGA,161224,3646.4132,N,09702.9533,W,2,10,0.9,315.8,M,-26.7,M,,*7B
$GPGSA,A,3,07,08,11,,17,19,24,26,28,48,51,,1.9,0.9,1.6*35
$GPRMC,161225,A,3646.4232,N,09702.9534,W,035.7,359.6,111010,004.9,E*65
$GPGGA,161225,3646.4232,N,09702.9534,W,2,10,0.9,315.8,M,-26.7,M,,*7E
$GPGSA,A,3,07,08,11,,17,19,24,26,28,48,51,,1.9,0.9,1.6*35
$GPRMC,161226,A,3646.4333,N,09702.9534,W,035.9,359.8,111010,004.9,E*66
$GPGGA,161226,3646.4333,N,09702.9534,W,2,10,0.9,315.9,M,-26.7,M,,*7C
$GPGSA,A,3,07,08,11,,17,19,24,26,28,48,51,,1.9,0.9,1.6*35
$GPRMC,161227,A,3646.4433,N,09702.9534,W,036.0,359.9,111010,004.9,E*6B
$GPGGA,161227,3646.4433,N,09702.9534,W,2,10,0.9,316.1,M,-26.7,M,,*71
$GPGSA,A,3,07,08,11,,17,19,24,26,28,48,51,,1.9,0.9,1.6*35
$GPRMC,161228,A,3646.4533,N,09702.9535,W,036.0,359.8,111010,004.9,E*65
$GPGGA,161228,3646.4533,N,09702.9535,W,2,10,0.9,316.1,M,-26.7,M,,*7E
$GPGSA,A,3,07,08,11,,17,19,24,26,28,48,51,,1.9,0.9,1.6*35
$GPRMC,161229,A,3646.4634,N,09702.9536,W,036.0,359.6,111010,004.9,E*6D
$GPGGA,161229,3646.4634,N,09702.9536,W,2,10,0.9,316.2,M,-26.7,M,,*7B
$GPGSA,A,3,07,08,11,,17,19,24,26,28,48,51,,1.9,0.9,1.6*35
$GPRMC,161230,A,3646.4735,N,09702.9536,W,036.2,359.7,111010,004.9,E*66
$GPGGA,161230,3646.4735,N,09702.9536,W,2,10,0.9,316.2,M,-26.7,M,,*73
$GPGSA,A,3,07,08,11,,17,19,24,26,28,48,51,,1.9,0.9,1.6*35
$GPRMC,161231,A,3646.4837,N,09702.9535,W,036.4,000.1,111010,004.9,E*66
$GPGGA,161231,3646.4837,N,09702.9535,W,2,10,0.9,316.1,M,-26.7,M,,*7F
$GPGSA,A,3,07,08,11,,17,19,24,26,28,48,51,,1.9,0.9,1.6*35
$GPRMC,161232,A,3646.4939,N,09702.9535,W,036.6,000.1,111010,004.9,E*68
$GPGGA,161232,3646.4939,N,09702.9535,W,2,10,0.9,315.7,M,-26.7,M,,*76
$GPGSA,A,3,07,08,11,,17,19,24,26,28,48,51,,1.9,0.9,1.7*34
$GPRMC,161233,A,3646.5041,N,09702.9535,W,036.7,000.2,111010,004.9,E*6C
$GPGGA,161233,3646.5041,N,09702.9535,W,2,10,1.0,315.4,M,-26.7,M,,*7B
$GPGSA,A,3,07,08,11,,17,19,24,26,28,48,51,,2.0,1.0,1.8*39
$GPRMC,161234,A,3646.5144,N,09702.9534,W,036.8,000.2,111010,004.9,E*61
$GPGGA,161234,3646.5144,N,09702.9534,W,2,10,1.0,315.2,M,-26.7,M,,*7F
$GPGSA,A,3,07,08,11,,17,19,24,26,28,48,51,,2.1,1.0,1.9*39
$GPRMC,161235,A,3646.5247,N,09702.9534,W,037.0,000.2,111010,004.9,E*69
$GPGGA,161235,3646.5247,N,09702.9534,W,2,10,1.0,314.9,M,-26.7,M,,*74
$GPGSA,A,3,07,08,11,,17,19,24,26,28,48,51,,2.1,1.0,1.9*39
$GPRMC,161236,A,3646.5351,N,09702.9535,W,037.1,360.0,111010,004.9,E*6B
$GPGGA,161236,3646.5351,N,09702.9535,W,2,10,0.9,315.0,M,-26.7,M,,*70
$GPGSA,A,3,07,08,11,,17,19,24,26,28,48,51,,2.0,0.9,1.8*31
$GPRMC,161237,A,3646.5454,N,09702.9536,W,037.1,359.7,111010,004.9,E*66
$GPGGA,161237,3646.5454,N,09702.9536,W,2,10,0.9,314.9,M,-26.7,M,,*78
$GPGSA,A,3,07,08,11,,17,19,24,26,28,48,51,,2.0,0.9,1.8*31
$GPRMC,161238,A,3646.5558,N,09702.9537,W,037.1,359.6,111010,004.9,E*64
$GPGGA,161238,3646.5558,N,09702.9537,W,2,10,0.9,314.9,M,-26.7,M,,*7B
$GPGSA,A,3,07,08,11,,17,19,24,26,28,48,51,,2.0,0.9,1.8*31
$GPRMC,161239,A,3646.5661,N,09702.9537,W,037.2,359.7,111010,004.9,E*6E
$GPGGA,161239,3646.5661,N,09702.9537,W,2,10,0.9,314.7,M,-26.7,M,,*7D
$GPGSA,A,3,07,08,11,,17,19,24,26,28,48,51,,2.0,0.9,1.8*31
$GPRMC,161240,A,3646.5765,N,09702.9537,W,037.2,359.8,111010,004.9,E*6A
$GPGGA,161240,3646.5765,N,09702.9537,W,2,10,0.9,314.8,M,-26.7,M,,*79
$GPGSA,A,3,07,08,11,,17,19,24,26,28,48,51,,2.0,0.9,1.8*31
$GPRMC,161241,A,3646.5869,N,09702.9537,W,037.3,359.9,111010,004.9,E*68
$GPGGA,161241,3646.5869,N,09702.9537,W,2,10,1.0,314.8,M,-26.7,M,,*73
$GPGSA,A,3,07,08,11,,17,19,24,26,28,48,51,,2.1,1.0,1.9*39
$GPRMC,161242,A,3646.5973,N,09702.9533,W,037.4,000.6,111010,004.9,E*62
$GPGGA,161242,3646.5973,N,09702.9533,W,2,10,1.5,314.5,M,-26.7,M,,*76
$GPGSA,A,3,07,08,11,,17,19,24,26,28,48,51,,2.5,1.5,1.0*31
$GPRMC,161243,A,3646.6077,N,09702.9533,W,037.4,000.4,111010,004.9,E*6F
$GPGGA,161243,3646.6077,N,09702.9533,W,2,10,1.6,314.4,M,-26.7,M,,*7B
$GPGSA,A,3,07,08,11,,17,19,24,26,28,48,51,,2.5,1.6,1.0*32
$GPRMC,161244,A,3646.6182,N,09702.9533,W,037.5,000.0,111010,004.9,E*66
$GPGGA,161244,3646.6182,N,09702.9533,W,2,10,1.0,314.6,M,-26.7,M,,*73
$GPGSA,A,3,07,08,11,,17,19,24,26,28,48,51,,2.3,1.0,1.1*33
$GPRMC,161245,A,3646.6286,N,09702.9534,W,037.4,359.9,111010,004.9,E*60
$GPGGA,161245,3646.6286,N,09702.9534,W,2,10,1.0,314.7,M,-26.7,M,,*73
$GPGSA,A,3,07,08,11,,17,19,24,26,28,48,51,,2.3,1.0,1.1*33
$GPRMC,161246,A,3646.6390,N,09702.9534,W,037.3,360.0,111010,004.9,E*61
$GPGGA,161246,3646.6390,N,09702.9534,W,2,10,1.0,314.8,M,-26.7,M,,*79
$GPGSA,A,3,07,08,11,,17,19,24,26,28,48,51,,2.3,1.0,1.1*33
$GPRMC,161247,A,3646.6493,N,09702.9534,W,037.3,360.0,111010,004.9,E*64
$GPGGA,161247,3646.6493,N,09702.9534,W,2,10,1.0,314.9,M,-26.7,M,,*7D
$GPGSA,A,3,07,08,11,,17,19,24,26,28,48,51,,2.3,1.0,1.2*30
$GPRMC,161248,A,3646.6597,N,09702.9534,W,037.3,359.9,111010,004.9,E*6D
$GPGGA,161248,3646.6597,N,09702.9534,W,2,10,1.0,314.9,M,-26.7,M,,*77
$GPGSA,A,3,07,08,11,,17,19,24,26,28,48,51,,2.3,1.0,1.2*30
$GPRMC,161249,A,3646.6701,N,09702.9535,W,037.4,359.7,111010,004.9,E*69
$GPGGA,161249,3646.6701,N,09702.9535,W,2,10,1.0,315.1,M,-26.7,M,,*73
$GPGSA,A,3,07,08,11,,17,19,24,26,28,48,51,,2.3,1.0,1.3*31
$GPRMC,161250,A,3646.6805,N,09702.9537,W,037.4,359.5,111010,004.9,E*6A
$GPGGA,161250,3646.6805,N,09702.9537,W,2,10,1.0,315.3,M,-26.7,M,,*70
$GPGSA,A,3,07,08,11,,17,19,24,26,28,48,51,,2.3,1.0,1.3*31
$GPRMC,161251,A,3646.6910,N,09702.9539,W,037.4,359.2,111010,004.9,E*67
$GPGGA,161251,3646.6910,N,09702.9539,W,2,10,1.0,315.5,M,-26.7,M,,*7C
$GPGSA,A,3,07,08,11,,17,19,24,26,28,48,51,,2.3,1.0,1.3*31
$GPRMC,161252,A,3646.7014,N,09702.9542,W,037.5,359.1,111010,004.9,E*66
$GPGGA,161252,3646.7014,N,09702.9542,W,2,10,1.0,315.6,M,-26.7,M,,*7C
$GPGSA,A,3,07,08,11,,17,19,24,26,28,48,51,,2.3,1.0,1.4*36
$GPRMC,161253,A,3646.7118,N,09702.9544,W,037.5,359.1,111010,004.9,E*6C
$GPGGA,161253,3646.7118,N,09702.9544,W,2,10,1.1,315.8,M,-26.7,M,,*79
$GPGSA,A,3,07,08,11,,17,19,24,26,28,48,51,,2.4,1.1,1.6*32
$GPRMC,161254,A,3646.7222,N,09702.9546,W,037.4,359.1,111010,004.9,E*62
$GPGGA,161254,3646.7222,N,09702.9546,W,2,10,1.1,316.2,M,-26.7,M,,*7F
$GPGSA,A,3,07,08,11,,17,19,24,26,28,48,51,,2.5,1.1,1.7*32
$GPRMC,161255,A,3646.7326,N,09702.9547,W,037.3,359.4,111010,004.9,E*65
$GPGGA,161255,3646.7326,N,09702.9547,W,2,10,1.2,316.5,M,-26.7,M,,*7E
$GPGSA,A,3,07,08,11,,17,19,24,26,28,48,51,,2.5,1.2,1.8*3E
$GPRMC,161256,A,3646.7429,N,09702.9547,W,037.2,359.6,111010,004.9,E*6D
$GPGGA,161256,3646.7429,N,09702.9547,W,2,10,1.2,316.7,M,-26.7,M,,*77
$GPGSA,A,3,07,08,11,,17,19,24,26,28,48,51,,2.6,1.2,1.9*3C
$GPRMC,161257,A,3646.7532,N,09702.9548,W,037.1,359.7,111010,004.9,E*6A
$GPGGA,161257,3646.7532,N,09702.9548,W,2,10,1.0,317.2,M,-26.7,M,,*74
$GPGSA,A,3,07,08,11,,17,19,24,26,28,48,51,,2.3,1.0,1.9*3B
$GPRMC,161258,A,3646.7635,N,09702.9548,W,037.1,359.7,111010,004.9,E*61
$GPGGA,161258,3646.7635,N,09702.9548,W,2,10,1.0,317.4,M,-26.7,M,,*79
$GPGSA,A,3,07,08,11,,17,19,24,26,28,48,51,,2.3,1.0,2.0*31
$GPRMC,161259,A,3646.7738,N,09702.9549,W,037.0,359.7,111010,004.9,E*6C
$GPGGA,161259,3646.7738,N,09702.9549,W,2,10,1.1,317.7,M,-26.7,M,,*77
$GPGSA,A,3,07,08,11,,17,19,24,26,28,48,51,,2.4,1.1,2.1*36
$GPRMC,161300,A,3646.7840,N,09702.9549,W,036.8,359.7,111010,004.9,E*68
$GPGGA,161300,3646.7840,N,09702.9549,W,2,10,1.1,318.1,M,-26.7,M,,*73
$GPGSA,A,3,07,08,11,,17,19,24,26,28,48,51,,2.5,1.1,2.1*37
$GPRMC,161301,A,3646.7941,N,09702.9551,W,036.7,359.5,111010,004.9,E*6D
$GPGGA,161301,3646.7941,N,09702.9551,W,2,11,1.2,318.2,M,-26.7,M,,*7A
$GPGSA,A,3,07,08,11,13,17,19,24,26,28,48,51,,2.7,1.2,2.3*36
$GPRMC,161302,A,3646.8043,N,09702.9553,W,036.6,359.3,111010,004.9,E*6F
$GPGGA,161302,3646.8043,N,09702.9553,W,2,11,1.3,318.4,M,-26.7,M,,*78
$GPGSA,A,3,07,08,11,13,17,19,24,26,28,48,51,,2.7,1.3,2.3*37
$GPRMC,161303,A,3646.8144,N,09702.9556,W,036.5,359.1,111010,004.9,E*6C
$GPGGA,161303,3646.8144,N,09702.9556,W,2,11,1.4,318.6,M,-26.7,M,,*7F
$GPGSA,A,3,07,08,11,13,17,19,24,26,28,48,51,,2.9,1.4,2.5*38
$GPRMC,161304,A,3646.8245,N,09702.9558,W,036.4,359.0,111010,004.9,E*67
$GPGGA,161304,3646.8245,N,09702.9558,W,2,11,1.5,318.9,M,-26.7,M,,*7A
$GPGSA,A,3,07,08,11,13,17,19,24,26,28,48,51,,3.1,1.5,2.7*32
$GPRMC,161305,A,3646.8346,N,09702.9560,W,036.3,359.1,111010,004.9,E*69
$GPGGA,161305,3646.8346,N,09702.9560,W,2,11,1.5,319.1,M,-26.7,M,,*7B
$GPGSA,A,3,07,08,11,13,17,19,24,26,28,48,51,,3.1,1.5,2.7*32
$GPRMC,161306,A,3646.8446,N,09702.9562,W,036.1,359.1,111010,004.9,E*6D
$GPGGA,161306,3646.8446,N,09702.9562,W,2,11,1.6,319.4,M,-26.7,M,,*7B
$GPGSA,A,3,07,08,11,13,17,19,24,26,28,48,51,,3.3,1.6,2.8*3C
$GPRMC,161307,A,3646.8546,N,09702.9563,W,036.0,359.2,111010,004.9,E*6E
$GPGGA,161307,3646.8546,N,09702.9563,W,2,11,2.0,319.6,M,-26.7,M,,*7D
$GPGSA,A,3,07,08,11,13,17,19,24,26,28,48,51,,3.8,2.0,3.2*39
$GPRMC,161308,A,3646.8645,N,09702.9563,W,035.9,359.5,111010,004.9,E*6C
$GPGGA,161308,3646.8645,N,09702.9563,W,2,11,2.1,319.8,M,-26.7,M,,*7D
$GPGSA,A,3,07,08,11,13,17,19,24,26,28,48,51,,3.9,2.1,3.3*38
$GPRMC,161309,A,3646.8742,N,09702.9564,W,035.2,359.8,111010,004.9,E*6A
$GPGGA,161309,3646.8742,N,09702.9564,W,2,11,2.1,319.9,M,-26.7,M,,*7C
$GPGSA,A,3,07,08,11,13,17,19,24,26,28,48,51,,4.0,2.1,3.3*36
$GPRMC,161310,A,3646.8835,N,09702.9564,W,034.4,359.8,111010,004.9,E*6A
$GPGGA,161310,3646.8835,N,09702.9564,W,2,11,2.1,320.1,M,-26.7,M,,*79
$GPGSA,A,3,07,08,11,13,17,19,24,26,28,48,51,,4.1,2.1,3.4*30
$GPRMC,161311,A,3646.8918,N,09702.9563,W,032.3,000.3,111010,004.9,E*67
$GPGGA,161311,3646.8918,N,09702.9563,W,2,11,2.2,320.1,M,-26.7,M,,*72
$GPGSA,A,3,07,08,11,13,17,19,24,26,28,48,51,,4.1,2.2,3.5*32
$GPRMC,161312,A,3646.8983,N,09702.9563,W,027.8,000.1,111010,004.9,E*6B
$GPGGA,161312,3646.8983,N,09702.9563,W,2,11,2.2,320.4,M,-26.7,M,,*76
$GPGSA,A,3,07,08,11,13,17,19,24,26,28,48,51,,4.1,2.2,3.5*32
$GPRMC,161313,A,3646.9026,N,09702.9564,W,021.5,359.7,111010,004.9,E*68
$GPGGA,161313,3646.9026,N,09702.9564,W,2,11,1.1,320.5,M,-26.7,M,,*76
$GPGSA,A,3,07,08,11,13,17,19,24,26,28,48,51,,2.3,1.1,2.0*32
$GPRMC,161314,A,3646.9044,N,09702.9568,W,014.1,357.5,111010,004.9,E*69
$GPGGA,161314,3646.9044,N,09702.9568,W,2,11,0.9,320.5,M,-26.7,M,,*70
$GPGSA,A,3,07,08,11,13,17,19,24,26,28,48,51,,2.0,0.9,1.8*33
$GPRMC,161315,A,3646.9042,N,09702.9572,W,006.7,352.5,111010,004.9,E*65
$GPGGA,161315,3646.9042,N,09702.9572,W,2,11,0.9,320.6,M,-26.7,M,,*7F
$GPGSA,A,3,07,08,11,13,17,19,24,26,28,48,51,,2.0,0.9,1.8*33
$GPRMC,161316,A,3646.9039,N,09702.9576,W,002.8,338.2,111010,004.9,E*6E
$GPGGA,161316,3646.9039,N,09702.9576,W,2,11,0.9,320.7,M,-26.7,M,,*75
$GPGSA,A,3,07,08,11,13,17,19,24,26,28,48,51,,2.0,0.9,1.8*33
$GPRMC,161317,A,3646.9047,N,09702.9592,W,004.0,313.7,111010,004.9,E*6E
$GPGGA,161317,3646.9047,N,09702.9592,W,2,11,0.9,320.6,M,-26.7,M,,*76
$GPGSA,A,3,07,08,11,13,17,19,24,26,28,48,51,,2.0,0.9,1.8*33
$GPRMC,161318,A,3646.9053,N,09702.9627,W,006.9,292.0,111010,004.9,E*6D
$GPGGA,161318,3646.9053,N,09702.9627,W,2,11,0.9,320.7,M,-26.7,M,,*70
$GPGSA,A,3,07,08,11,13,17,19,24,26,28,48,51,,2.0,0.9,1.8*33
$GPRMC,161319,A,3646.9051,N,09702.9670,W,009.5,274.9,111010,004.9,E*6E
$GPGGA,161319,3646.9051,N,09702.9670,W,2,11,0.9,320.8,M,-26.7,M,,*7E
$GPGSA,A,3,07,08,11,13,17,19,24,26,28,48,51,,2.0,0.9,1.8*33
$GPRMC,161320,A,3646.9050,N,09702.9718,W,011.7,271.7,111010,004.9,E*6A
$GPGGA,161320,3646.9050,N,09702.9718,W,2,11,0.9,321.0,M,-26.7,M,,*73
$GPGSA,A,3,07,08,11,13,17,19,24,26,28,48,51,,2.0,0.9,1.8*33
$GPRMC,161321,A,3646.9049,N,09702.9770,W,013.4,270.1,111010,004.9,E*6B
$GPGGA,161321,3646.9049,N,09702.9770,W,2,11,0.9,321.0,M,-26.7,M,,*74
$GPGSA,A,3,07,08,11,13,17,19,24,26,28,48,51,,2.0,0.9,1.8*33
$GPRMC,161322,A,3646.9048,N,09702.9827,W,014.9,269.1,111010,004.9,E*66
$GPGGA,161322,3646.9048,N,09702.9827,W,2,11,0.9,321.2,M,-26.7,M,,*79
$GPGSA,A,3,07,08,11,13,17,19,24,26,28,48,51,,2.0,0.9,1.8*33
$GPRMC,161323,A,3646.9049,N,09702.9886,W,016.0,270.0,111010,004.9,E*6F
$GPGGA,161323,3646.9049,N,09702.9886,W,2,11,0.9,321.4,M,-26.7,M,,*74
$GPGSA,A,3,07,08,11,13,17,19,24,26,28,48,51,,2.0,0.9,1.8*33
$GPRMC,161324,A,3646.9048,N,09702.9946,W,016.7,269.9,111010,004.9,E*62
$GPGGA,161324,3646.9048,N,09702.9946,W,2,11,0.9,321.7,M,-26.7,M,,*7C
$GPGSA,A,3,07,08,11,13,17,19,24,26,28,48,51,,2.0,0.9,1.8*33
$GPRMC,161325,A,3646.9049,N,09703.0007,W,017.2,270.1,111010,004.9,E*62
$GPGGA,161325,3646.9049,N,09703.0007,W,2,11,0.9,322.0,M,-26.7,M,,*7C
$GPGSA,A,3,07,08,11,13,17,19,24,26,28,48,51,,2.0,0.9,1.8*33
$GPRMC,161326,A,3646.9050,N,09703.0068,W,017.4,270.5,111010,004.9,E*62
$GPGGA,161326,3646.9050,N,09703.0068,W,2,11,0.8,322.3,M,-26.7,M,,*7C
$GPGSA,A,3,07,08,11,13,17,19,24,26,28,48,51,,1.6,0.8,1.3*3C
$GPRMC,161327,A,3646.9048,N,09703.0127,W,017.2,269.3,111010,004.9,E*68
$GPGGA,161327,3646.9048,N,09703.0127,W,2,11,0.8,322.6,M,-26.7,M,,*7B
$GPGSA,A,3,07,08,11,13,17,19,24,26,28,48,51,,1.6,0.8,1.4*3B
$GPRMC,161328,A,3646.9048,N,09703.0188,W,017.3,269.5,111010,004.9,E*65
$GPGGA,161328,3646.9048,N,09703.0188,W,2,11,0.8,323.1,M,-26.7,M,,*77
$GPGSA,A,3,07,08,11,13,17,19,24,26,28,48,51,,1.6,0.8,1.4*3B
$GPRMC,161329,A,3646.9048,N,09703.0250,W,017.6,269.8,111010,004.9,E*6A
$GPGGA,161329,3646.9048,N,09703.0250,W,2,11,0.8,323.4,M,-26.7,M,,*75
$GPGSA,A,3,07,08,11,13,17,19,24,26,28,48,51,,1.6,0.8,1.3*3C
$GPRMC,161330,A,3646.9046,N,09703.0313,W,018.0,269.0,111010,004.9,E*6B
$GPGGA,161330,3646.9046,N,09703.0313,W,2,11,0.8,323.8,M,-26.7,M,,*79
$GPGSA,A,3,07,08,11,13,17,19,24,26,28,48,51,,1.6,0.8,1.3*3C
$GPRMC,161331,A,3646.9047,N,09703.0380,W,018.6,269.9,111010,004.9,E*6E
$GPGGA,161331,3646.9047,N,09703.0380,W,2,11,0.8,324.1,M,-26.7,M,,*7D
$GPGSA,A,3,07,08,11,13,17,19,24,26,28,48,51,,1.6,0.8,1.4*3B
$GPRMC,161332,A,3646.9049,N,09703.0448,W,019.2,271.1,111010,004.9,E*64
$GPGGA,161332,3646.9049,N,09703.0448,W,2,11,0.8,324.4,M,-26.7,M,,*76
$GPGSA,A,3,07,08,11,13,17,19,24,26,28,48,51,,1.6,0.8,1.4*3B
$GPRMC,161333,A,3646.9050,N,09703.0517,W,019.5,270.8,111010,004.9,E*69
$GPGGA,161333,3646.9050,N,09703.0517,W,2,11,0.9,324.7,M,-26.7,M,,*76
$GPGSA,A,3,07,08,11,13,17,19,24,26,28,48,51,,1.7,0.9,1.4*3B
$GPRMC,161334,A,3646.9049,N,09703.0586,W,019.8,270.3,111010,004.9,E*68
$GPGGA,161334,3646.9049,N,09703.0586,W,2,11,0.9,325.1,M,-26.7,M,,*76
$GPGSA,A,3,07,08,11,13,17,19,24,26,28,48,51,,1.7,0.9,1.4*3B
$GPRMC,161335,A,3646.9050,N,09703.0656,W,020.1,270.4,111010,004.9,E*6B
$GPGGA,161335,3646.9050,N,09703.0656,W,2,11,0.8,325.4,M,-26.7,M,,*75
$GPGSA,A,3,07,08,11,13,17,19,24,26,28,48,51,,1.6,0.8,1.3*3C
$GPRMC,161336,A,3646.9048,N,09703.0728,W,020.4,269.5,111010,004.9,E*65
$GPGGA,161336,3646.9048,N,09703.0728,W,2,11,0.8,325.6,M,-26.7,M,,*75
$GPGSA,A,3,07,08,11,13,17,19,24,26,28,48,51,,1.6,0.8,1.4*3B
$GPRMC,161337,A,3646.9046,N,09703.0800,W,020.7,268.6,111010,004.9,E*6E
$GPGGA,161337,3646.9046,N,09703.0800,W,2,11,0.8,325.8,M,-26.7,M,,*71
$GPGSA,A,3,07,08,11,13,17,19,24,26,28,48,51,,1.6,0.8,1.4*3B
$GPRMC,161338,A,3646.9046,N,09703.0873,W,020.8,269.4,111010,004.9,E*69
$GPGGA,161338,3646.9046,N,09703.0873,W,2,11,0.8,325.8,M,-26.7,M,,*7A
$GPGSA,A,3,07,08,11,13,17,19,24,26,28,48,51,,1.6,0.8,1.4*3B
$GPRMC,161339,A,3646.9047,N,09703.0945,W,020.8,270.2,111010,004.9,E*63
$GPGGA,161339,3646.9047,N,09703.0945,W,2,11,0.9,325.8,M,-26.7,M,,*7F
$GPGSA,A,3,07,08,11,13,17,19,24,26,28,48,51,,1.7,0.9,1.4*3B
$GPRMC,161340,A,3646.9046,N,09703.1019,W,021.1,269.5,111010,004.9,E*6A
$GPGGA,161340,3646.9046,N,09703.1019,W,2,11,0.9,325.4,M,-26.7,M,,*7D
$GPGSA,A,3,07,08,11,13,17,19,24,26,28,48,51,,1.7,0.9,1.4*3B
$GPRMC,161341,A,3646.9045,N,09703.1097,W,021.8,269.4,111010,004.9,E*66
$GPGGA,161341,3646.9045,N,09703.1097,W,2,11,0.9,324.9,M,-26.7,M,,*75
$GPGSA,A,3,07,08,11,13,17,19,24,26,28,48,51,,1.7,0.9,1.5*3A
$GPRMC,161342,A,3646.9044,N,09703.1176,W,022.3,269.5,111010,004.9,E*63
$GPGGA,161342,3646.9044,N,09703.1176,W,2,11,0.9,324.3,M,-26.7,M,,*73
$GPGSA,A,3,07,08,11,13,17,19,24,26,28,48,51,,1.7,0.9,1.5*3A
$GPRMC,161343,A,3646.9044,N,09703.1257,W,022.8,269.6,111010,004.9,E*6A
$GPGGA,161343,3646.9044,N,09703.1257,W,2,11,0.9,323.8,M,-26.7,M,,*7E
$GPGSA,A,3,07,08,11,13,17,19,24,26,28,48,51,,1.7,0.9,1.5*3A
$GPRMC,161344,A,3646.9044,N,09703.1339,W,023.3,269.8,111010,004.9,E*60
$GPGGA,161344,3646.9044,N,09703.1339,W,2,11,0.9,323.3,M,-26.7,M,,*7B
$GPGSA,A,3,07,08,11,13,17,19,24,26,28,48,51,,1.7,0.9,1.5*3A
$GPRMC,161345,A,3646.9045,N,09703.1423,W,023.7,270.2,111010,004.9,E*6A
$GPGGA,161345,3646.9045,N,09703.1423,W,2,11,0.8,322.9,M,-26.7,M,,*7D
$GPGSA,A,3,07,08,11,13,17,19,24,26,28,48,51,,1.6,0.8,1.3*3C
$GPRMC,161346,A,3646.9047,N,09703.1507,W,024.1,271.2,111010,004.9,E*6C
$GPGGA,161346,3646.9047,N,09703.1507,W,2,11,0.9,322.7,M,-26.7,M,,*74
$GPGSA,A,3,07,08,11,13,17,19,24,26,28,48,51,,1.6,0.9,1.3*3D
$GPRMC,161347,A,3646.9048,N,09703.1593,W,024.4,271.1,111010,004.9,E*69
$GPGGA,161347,3646.9048,N,09703.1593,W,2,11,0.9,322.4,M,-26.7,M,,*74
$GPGSA,A,3,07,08,11,13,17,19,24,26,28,48,51,,1.6,0.9,1.3*3D
$GPRMC,161348,A,3646.9048,N,09703.1678,W,024.6,270.2,111010,004.9,E*60
$GPGGA,161348,3646.9048,N,09703.1678,W,2,11,0.8,322.2,M,-26.7,M,,*7A
$GPGSA,A,3,07,08,11,13,17,19,24,26,28,48,51,,1.6,0.8,1.3*3C
$GPRMC,161349,A,3646.9048,N,09703.1764,W,024.6,270.4,111010,004.9,E*6B
$GPGGA,161349,3646.9048,N,09703.1764,W,2,11,0.8,322.1,M,-26.7,M,,*74
$GPGSA,A,3,07,08,11,13,17,19,24,26,28,48,51,,1.6,0.8,1.3*3C
$GPRMC,161350,A,3646.9049,N,09703.1849,W,024.7,270.4,111010,004.9,E*63
$GPGGA,161350,3646.9049,N,09703.1849,W,2,11,0.8,321.8,M,-26.7,M,,*77
$GPGSA,A,3,07,08,11,13,17,19,24,26,28,48,51,,1.6,0.8,1.3*3C
$GPRMC,161351,A,3646.9049,N,09703.1935,W,024.8,270.5,111010,004.9,E*66
$GPGGA,161351,3646.9049,N,09703.1935,W,2,11,0.9,321.6,M,-26.7,M,,*73
$GPGSA,A,3,07,08,11,13,17,19,24,26,28,48,51,,1.6,0.9,1.4*3A
$GPRMC,161352,A,3646.9051,N,09703.2021,W,024.8,271.0,111010,004.9,E*67
$GPGGA,161352,3646.9051,N,09703.2021,W,2,11,0.8,321.4,M,-26.7,M,,*75
$GPGSA,A,3,07,08,11,13,17,19,24,26,28,48,51,,1.6,0.8,1.3*3C
$GPRMC,161353,A,3646.9053,N,09703.2105,W,024.6,271.2,111010,004.9,E*6F
$GPGGA,161353,3646.9053,N,09703.2105,W,2,11,0.8,321.2,M,-26.7,M,,*77
$GPGSA,A,3,07,08,11,13,17,19,24,26,28,48,51,,1.6,0.8,1.4*3B
$GPRMC,161354,A,3646.9052,N,09703.2188,W,024.3,270.3,111010,004.9,E*69
$GPGGA,161354,3646.9052,N,09703.2188,W,2,11,0.8,321.0,M,-26.7,M,,*76
$GPGSA,A,3,07,08,11,13,17,19,24,26,28,48,51,,1.6,0.8,1.4*3B
$GPRMC,161355,A,3646.9051,N,09703.2270,W,024.1,269.6,111010,004.9,E*60
$GPGGA,161355,3646.9051,N,09703.2270,W,2,11,0.8,320.9,M,-26.7,M,,*78
$GPGSA,A,3,07,08,11,13,17,19,24,26,28,48,51,,1.6,0.8,1.4*3B
$GPRMC,161356,A,3646.9050,N,09703.2352,W,023.9,269.6,111010,004.9,E*6C
$GPGGA,161356,3646.9050,N,09703.2352,W,2,11,0.8,320.7,M,-26.7,M,,*75
$GPGSA,A,3,07,08,11,13,17,19,24,26,28,48,51,,1.6,0.8,1.3*3C
$GPRMC,161357,A,3646.9051,N,09703.2435,W,023.9,270.0,111010,004.9,E*64
$GPGGA,161357,3646.9051,N,09703.2435,W,2,11,0.9,320.5,M,-26.7,M,,*70
$GPGSA,A,3,07,08,11,13,17,19,24,26,28,48,51,,1.6,0.9,1.4*3A
$GPRMC,161358,A,3646.9051,N,09703.2516,W,023.7,270.1,111010,004.9,E*64
$GPGGA,161358,3646.9051,N,09703.2516,W,2,11,0.8,320.5,M,-26.7,M,,*7E
$GPGSA,A,3,07,08,11,13,17,19,24,26,28,48,51,,1.6,0.8,1.3*3C
$GPRMC,161359,A,3646.9052,N,09703.2594,W,023.2,270.5,111010,004.9,E*6D
$GPGGA,161359,3646.9052,N,09703.2594,W,2,11,0.8,320.6,M,-26.7,M,,*75
$GPGSA,A,3,07,08,11,13,17,19,24,26,28,48,51,,1.6,0.8,1.3*3C
$GPRMC,161400,A,3646.9053,N,09703.2670,W,022.6,270.4,111010,004.9,E*6A
$GPGGA,161400,3646.9053,N,09703.2670,W,2,11,0.8,320.7,M,-26.7,M,,*77
$GPGSA,A,3,07,08,11,13,17,19,24,26,28,48,51,,1.6,0.8,1.4*3B
$GPRMC,161401,A,3646.9052,N,09703.2744,W,021.9,270.0,111010,004.9,E*64
$GPGGA,161401,3646.9052,N,09703.2744,W,2,11,0.8,320.9,M,-26.7,M,,*7F
$GPGSA,A,3,07,08,11,13,17,19,24,26,28,48,51,,1.6,0.8,1.3*3C
$GPRMC,161402,A,3646.9052,N,09703.2815,W,021.2,270.0,111010,004.9,E*67
$GPGGA,161402,3646.9052,N,09703.2815,W,2,11,0.8,321.2,M,-26.7,M,,*7D
$GPGSA,A,3,07,08,11,13,17,19,24,26,28,48,51,,1.6,0.8,1.3*3C
$GPRMC,161403,A,3646.9050,N,09703.2884,W,020.6,268.9,111010,004.9,E*69
$GPGGA,161403,3646.9050,N,09703.2884,W,2,11,0.8,321.5,M,-26.7,M,,*71
$GPGSA,A,3,07,08,11,13,17,19,24,26,28,48,51,,1.6,0.8,1.3*3C
$GPRMC,161404,A,3646.9046,N,09703.2953,W,020.3,267.7,111010,004.9,E*66
$GPGGA,161404,3646.9046,N,09703.2953,W,2,11,0.8,321.6,M,-26.7,M,,*79
$GPGSA,A,3,07,08,11,13,17,19,24,26,28,48,51,,1.6,0.8,1.4*3B
$GPRMC,161405,A,3646.9047,N,09703.3022,W,020.1,268.8,111010,004.9,E*6A
$GPGGA,161405,3646.9047,N,09703.3022,W,2,11,0.8,321.8,M,-26.7,M,,*79
$GPGSA,A,3,07,08,11,13,17,19,24,26,28,48,51,,1.6,0.8,1.4*3B
$GPRMC,161406,A,3646.9050,N,09703.3092,W,020.2,271.1,111010,004.9,E*66
$GPGGA,161406,3646.9050,N,09703.3092,W,2,11,0.8,322.0,M,-26.7,M,,*7C
$GPGSA,A,3,07,08,11,13,17,19,24,26,28,48,51,,1.6,0.8,1.4*3B
$GPRMC,161407,A,3646.9050,N,09703.3162,W,020.1,270.7,111010,004.9,E*6D
$GPGGA,161407,3646.9050,N,09703.3162,W,2,11,0.8,322.3,M,-26.7,M,,*70
$GPGSA,A,3,07,08,11,13,17,19,24,26,28,48,51,,1.6,0.8,1.3*3C
$GPRMC,161408,A,3646.9049,N,09703.3231,W,020.1,269.5,111010,004.9,E*65
$GPGGA,161408,3646.9049,N,09703.3231,W,2,11,0.8,322.5,M,-26.7,M,,*74
$GPGSA,A,3,07,08,11,13,17,19,24,26,28,48,51,,1.6,0.8,1.3*3C
$GPRMC,161409,A,3646.9048,N,09703.3298,W,019.8,269.3,111010,004.9,E*63
$GPGGA,161409,3646.9048,N,09703.3298,W,2,11,0.8,322.7,M,-26.7,M,,*75
$GPGSA,A,3,07,08,11,13,17,19,24,26,28,48,51,,1.6,0.8,1.3*3C
$GPRMC,161410,A,3646.9048,N,09703.3366,W,019.6,269.6,111010,004.9,E*60
$GPGGA,161410,3646.9048,N,09703.3366,W,2,11,0.8,323.0,M,-26.7,M,,*7B
$GPGSA,A,3,07,08,11,13,17,19,24,26,28,48,51,,1.6,0.8,1.3*3C
$GPRMC,161411,A,3646.9049,N,09703.3432,W,019.4,270.2,111010,004.9,E*68
$GPGGA,161411,3646.9049,N,09703.3432,W,2,11,0.8,323.3,M,-26.7,M,,*7E
$GPGSA,A,3,07,08,11,13,17,19,24,26,28,48,51,,1.6,0.8,1.3*3C
$GPRMC,161412,A,3646.9049,N,09703.3497,W,019.1,270.0,111010,004.9,E*63
$GPGGA,161412,3646.9049,N,09703.3497,W,2,11,0.8,323.6,M,-26.7,M,,*77
$GPGSA,A,3,07,08,11,13,17,19,24,26,28,48,51,,1.6,0.8,1.3*3C
$GPRMC,161413,A,3646.9047,N,09703.3561,W,018.7,269.3,111010,004.9,E*68
$GPGGA,161413,3646.9047,N,09703.3561,W,2,11,0.8,323.8,M,-26.7,M,,*7E
$GPGSA,A,3,07,08,11,13,17,19,24,26,28,48,51,,1.6,0.8,1.3*3C
$GPRMC,161414,A,3646.9049,N,09703.3624,W,018.5,270.2,111010,004.9,E*68
$GPGGA,161414,3646.9049,N,09703.3624,W,2,11,0.8,324.0,M,-26.7,M,,*7A
$GPGSA,A,3,07,08,11,13,17,19,24,26,28,48,51,,1.6,0.8,1.3*3C
$GPRMC,161415,A,3646.9050,N,09703.3687,W,018.4,271.0,111010,004.9,E*6A
$GPGGA,161415,3646.9050,N,09703.3687,W,2,11,0.8,324.2,M,-26.7,M,,*78
$GPGSA,A,3,07,08,11,13,17,19,24,26,28,48,51,,1.6,0.8,1.3*3C
$GPRMC,161416,A,3646.9048,N,09703.3751,W,018.4,269.3,111010,004.9,E*60
$GPGGA,161416,3646.9048,N,09703.3751,W,2,11,0.8,324.4,M,-26.7,M,,*7E
$GPGSA,A,3,07,08,11,13,17,19,24,26,28,48,51,,1.6,0.8,1.3*3C
$GPRMC,161417,A,3646.9049,N,09703.3814,W,018.4,270.1,111010,004.9,E*64
$GPGGA,161417,3646.9049,N,09703.3814,W,2,11,0.8,324.6,M,-26.7,M,,*72
$GPGSA,A,3,07,08,11,13,17,19,24,26,28,48,51,,1.5,0.8,1.3*3F
$GPRMC,161418,A,3646.9050,N,09703.3878,W,018.4,270.9,111010,004.9,E*61
$GPGGA,161418,3646.9050,N,09703.3878,W,2,11,0.8,324.8,M,-26.7,M,,*71
$GPGSA,A,3,07,08,11,13,17,19,24,26,28,48,51,,1.5,0.8,1.3*3F
$GPRMC,161419,A,3646.9052,N,09703.3942,W,018.4,271.2,111010,004.9,E*60
$GPGGA,161419,3646.9052,N,09703.3942,W,2,11,0.9,325.0,M,-26.7,M,,*72
$GPGSA,A,3,07,08,11,13,17,19,24,26,28,48,51,,1.6,0.9,1.3*3D
$GPRMC,161420,A,3646.9052,N,09703.4007,W,018.6,270.9,111010,004.9,E*6D
$GPGGA,161420,3646.9052,N,09703.4007,W,2,11,0.8,325.2,M,-26.7,M,,*74
$GPGSA,A,3,07,08,11,13,17,19,24,26,28,48,51,,1.5,0.8,1.3*3F
$GPRMC,161421,A,3646.9053,N,09703.4074,W,018.9,270.8,111010,004.9,E*67
$GPGGA,161421,3646.9053,N,09703.4074,W,2,11,0.8,325.5,M,-26.7,M,,*77
$GPGSA,A,3,07,08,11,13,17,19,24,26,28,48,51,,1.5,0.8,1.3*3F
$GPRMC,161422,A,3646.9053,N,09703.4141,W,019.2,270.3,111010,004.9,E*62
$GPGGA,161422,3646.9053,N,09703.4141,W,2,11,0.8,325.7,M,-26.7,M,,*71
$GPGSA,A,3,07,08,11,13,17,19,24,26,28,48,51,,1.5,0.8,1.3*3F
$GPRMC,161423,A,3646.9053,N,09703.4210,W,019.5,269.9,111010,004.9,E*61
$GPGGA,161423,3646.9053,N,09703.4210,W,2,11,0.8,325.9,M,-26.7,M,,*79
$GPGSA,A,3,07,08,11,13,17,19,24,26,28,48,51,,1.5,0.8,1.3*3F
$GPRMC,161424,A,3646.9053,N,09703.4279,W,019.8,270.0,111010,004.9,E*65
$GPGGA,161424,3646.9053,N,09703.4279,W,2,11,0.8,326.2,M,-26.7,M,,*79
$GPGSA,A,3,07,08,11,13,17,19,24,26,28,48,51,,1.5,0.8,1.3*3F
$GPRMC,161425,A,3646.9054,N,09703.4350,W,020.1,270.4,111010,004.9,E*6E
$GPGGA,161425,3646.9054,N,09703.4350,W,2,11,0.8,326.4,M,-26.7,M,,*73
$GPGSA,A,3,07,08,11,13,17,19,24,26,28,48,51,,1.6,0.8,1.4*3B
$GPRMC,161426,A,3646.9055,N,09703.4420,W,020.3,270.7,111010,004.9,E*6D
$GPGGA,161426,3646.9055,N,09703.4420,W,2,11,0.8,326.7,M,-26.7,M,,*72
$GPGSA,A,3,07,08,11,13,17,19,24,26,28,48,51,,1.6,0.8,1.4*3B
$GPRMC,161427,A,3646.9056,N,09703.4492,W,020.5,270.8,111010,004.9,E*6F
$GPGGA,161427,3646.9056,N,09703.4492,W,2,11,0.8,327.0,M,-26.7,M,,*7F
$GPGSA,A,3,07,08,11,13,17,19,24,26,28,48,51,,1.6,0.8,1.4*3B
$GPRMC,161428,A,3646.9056,N,09703.4564,W,020.6,270.7,111010,004.9,E*64
$GPGGA,161428,3646.9056,N,09703.4564,W,2,11,0.8,327.3,M,-26.7,M,,*7B
$GPGSA,A,3,07,08,11,13,17,19,24,26,28,48,51,,1.5,0.8,1.3*3F
$GPRMC,161429,A,3646.9057,N,09703.4636,W,020.7,270.5,111010,004.9,E*63
$GPGGA,161429,3646.9057,N,09703.4636,W,2,11,0.8,327.6,M,-26.7,M,,*7A
$GPGSA,A,3,07,08,11,13,17,19,24,26,28,48,51,,1.5,0.8,1.3*3F
$GPRMC,161430,A,3646.9056,N,09703.4708,W,020.8,269.9,111010,004.9,E*6D
$GPGGA,161430,3646.9056,N,09703.4708,W,2,11,0.8,327.9,M,-26.7,M,,*70
$GPGSA,A,3,07,08,11,13,17,19,24,26,28,48,51,,1.5,0.8,1.3*3F
$GPRMC,161431,A,3646.9056,N,09703.4779,W,020.7,270.2,111010,004.9,E*66
$GPGGA,161431,3646.9056,N,09703.4779,W,2,11,0.8,328.2,M,-26.7,M,,*73
$GPGSA,A,3,07,08,11,13,17,19,24,26,28,48,51,,1.5,0.8,1.3*3F
$GPRMC,161432,A,3646.9055,N,09703.4851,W,020.8,269.7,111010,004.9,E*61
$GPGGA,161432,3646.9055,N,09703.4851,W,2,11,0.8,328.6,M,-26.7,M,,*72
$GPGSA,A,3,07,08,11,13,17,19,24,26,28,48,51,,1.5,0.8,1.3*3F
$GPRMC,161433,A,3646.9054,N,09703.4924,W,021.0,269.1,111010,004.9,E*6D
$GPGGA,161433,3646.9054,N,09703.4924,W,2,11,0.8,328.8,M,-26.7,M,,*7F
$GPGSA,A,3,07,08,11,13,17,19,24,26,28,48,51,,1.5,0.8,1.3*3F
$GPRMC,161434,A,3646.9053,N,09703.4997,W,021.0,268.8,111010,004.9,E*6D
$GPGGA,161434,3646.9053,N,09703.4997,W,2,11,0.9,329.2,M,-26.7,M,,*7D
$GPGSA,A,3,07,08,11,13,17,19,24,26,28,48,51,,1.6,0.9,1.3*3D
$GPRMC,161435,A,3646.9051,N,09703.5069,W,020.9,268.7,111010,004.9,E*60
$GPGGA,161435,3646.9051,N,09703.5069,W,2,11,0.9,329.4,M,-26.7,M,,*71
$GPGSA,A,3,07,08,11,13,17,19,24,26,28,48,51,,1.6,0.9,1.4*3A
$GPRMC,161436,A,3646.9050,N,09703.5142,W,020.9,269.0,111010,004.9,E*6C
$GPGGA,161436,3646.9050,N,09703.5142,W,2,11,0.9,329.7,M,-26.7,M,,*78
$GPGSA,A,3,07,08,11,13,17,19,24,26,28,48,51,,1.6,0.9,1.4*3A
$GPRMC,161437,A,3646.9051,N,09703.5216,W,021.2,269.7,111010,004.9,E*63
$GPGGA,161437,3646.9051,N,09703.5216,W,2,11,0.8,329.8,M,-26.7,M,,*74
$GPGSA,A,3,07,08,11,13,17,19,24,26,28,48,51,,1.5,0.8,1.3*3F
$GPRMC,161438,A,3646.9051,N,09703.5291,W,021.5,270.1,111010,004.9,E*6A
$GPGGA,161438,3646.9051,N,09703.5291,W,2,11,0.8,329.9,M,-26.7,M,,*75
$GPGSA,A,3,07,08,11,13,17,19,24,26,28,48,51,,1.5,0.8,1.3*3F
$GPRMC,161439,A,3646.9051,N,09703.5367,W,021.7,270.1,111010,004.9,E*61
$GPGGA,161439,3646.9051,N,09703.5367,W,2,11,0.8,329.9,M,-26.7,M,,*7C
$GPGSA,A,3,07,08,11,13,17,19,24,26,28,48,51,,1.5,0.8,1.3*3F
$GPRMC,161440,A,3646.9052,N,09703.5442,W,021.8,270.7,111010,004.9,E*65
$GPGGA,161440,3646.9052,N,09703.5442,W,2,11,0.9,329.8,M,-26.7,M,,*71
$GPGSA,A,3,07,08,11,13,17,19,24,26,28,48,51,,1.6,0.9,1.3*3D
$GPRMC,161441,A,3646.9053,N,09703.5518,W,021.9,270.6,111010,004.9,E*6B
$GPGGA,161441,3646.9053,N,09703.5518,W,2,11,0.9,329.7,M,-26.7,M,,*70
$GPGSA,A,3,07,08,11,13,17,19,24,26,28,48,51,,1.6,0.9,1.3*3D
$GPRMC,161442,A,3646.9053,N,09703.5598,W,022.5,270.7,111010,004.9,E*6E
$GPGGA,161442,3646.9053,N,09703.5598,W,2,11,0.8,329.4,M,-26.7,M,,*79
$GPGSA,A,3,07,08,11,13,17,19,24,26,28,48,51,,1.5,0.8,1.3*3F
$GPRMC,161443,A,3646.9055,N,09703.5681,W,023.2,270.9,111010,004.9,E*6A
$GPGGA,161443,3646.9055,N,09703.5681,W,2,11,0.9,328.9,M,-26.7,M,,*78
$GPGSA,A,3,07,08,11,13,17,19,24,26,28,48,51,,1.6,0.9,1.3*3D
$GPRMC,161444,A,3646.9055,N,09703.5765,W,023.8,270.8,111010,004.9,E*6D
$GPGGA,161444,3646.9055,N,09703.5765,W,2,11,0.9,328.6,M,-26.7,M,,*7B
$GPGSA,A,3,07,08,11,13,17,19,24,26,28,48,51,,1.6,0.9,1.3*3D
$GPRMC,161445,A,3646.9055,N,09703.5850,W,024.2,270.5,111010,004.9,E*65
$GPGGA,161445,3646.9055,N,09703.5850,W,2,11,0.9,328.4,M,-26.7,M,,*71
$GPGSA,A,3,07,08,11,13,17,19,24,26,28,48,51,,1.6,0.9,1.3*3D
$GPRMC,161446,A,3646.9055,N,09703.5936,W,024.6,270.2,111010,004.9,E*64
$GPGGA,161446,3646.9055,N,09703.5936,W,2,11,0.9,328.1,M,-26.7,M,,*76
$GPGSA,A,3,07,08,11,13,17,19,24,26,28,48,51,,1.6,0.9,1.3*3D
$GPRMC,161447,A,3646.9054,N,09703.6023,W,024.9,269.9,111010,004.9,E*66
$GPGGA,161447,3646.9054,N,09703.6023,W,2,11,0.9,328.0,M,-26.7,M,,*79
$GPGSA,A,3,07,08,11,13,17,19,24,26,28,48,51,,1.6,0.9,1.3*3D
$GPRMC,161448,A,3646.9054,N,09703.6112,W,025.2,269.9,111010,004.9,E*60
$GPGGA,161448,3646.9054,N,09703.6112,W,2,11,0.8,327.9,M,-26.7,M,,*72
$GPGSA,A,3,07,08,11,13,17,19,24,26,28,48,51,,1.5,0.8,1.3*3F
$GPRMC,161449,A,3646.9057,N,09703.6197,W,025.0,271.1,111010,004.9,E*6C
$GPGGA,161449,3646.9057,N,09703.6197,W,2,11,0.8,328.3,M,-26.7,M,,*78
$GPGSA,A,3,07,08,11,13,17,19,24,26,28,48,51,,1.5,0.8,1.3*3F
$GPRMC,161450,A,3646.9058,N,09703.6276,W,023.9,271.2,111010,004.9,E*6B
$GPGGA,161450,3646.9058,N,09703.6276,W,2,11,0.8,328.8,M,-26.7,M,,*78
$GPGSA,A,3,07,08,11,13,17,19,24,26,28,48,51,,1.5,0.8,1.3*3F
$GPRMC,161451,A,3646.9060,N,09703.6348,W,022.3,271.4,111010,004.9,E*60
$GPGGA,161451,3646.9060,N,09703.6348,W,2,11,0.8,329.3,M,-26.7,M,,*74
$GPGSA,A,3,07,08,11,13,17,19,24,26,28,48,51,,1.5,0.8,1.3*3F
$GPRMC,161452,A,3646.9061,N,09703.6407,W,019.7,271.3,111010,004.9,E*65
$GPGGA,161452,3646.9061,N,09703.6407,W,2,11,0.8,330.0,M,-26.7,M,,*71
$GPGSA,A,3,07,08,11,13,17,19,24,26,28,48,51,,1.5,0.8,1.3*3F
$GPRMC,161453,A,3646.9060,N,09703.6454,W,016.7,270.0,111010,004.9,E*6E
$GPGGA,161453,3646.9060,N,09703.6454,W,2,11,0.8,331.0,M,-26.7,M,,*76
$GPGSA,A,3,07,08,11,13,17,19,24,26,28,48,51,,1.5,0.8,1.3*3F
$GPRMC,161454,A,3646.9058,N,09703.6498,W,014.6,268.6,111010,004.9,E*6E
$GPGGA,161454,3646.9058,N,09703.6498,W,2,11,0.9,331.4,M,-26.7,M,,*7F
$GPGSA,A,3,07,08,11,13,17,19,24,26,28,48,51,,1.6,0.9,1.3*3D
$GPRMC,161455,A,3646.9057,N,09703.6541,W,013.6,268.7,111010,004.9,E*63
$GPGGA,161455,3646.9057,N,09703.6541,W,2,11,0.9,330.9,M,-26.7,M,,*78
$GPGSA,A,3,07,08,11,13,17,19,24,26,28,48,51,,1.6,0.9,1.3*3D
$GPRMC,161456,A,3646.9059,N,09703.6587,W,013.4,270.6,111010,004.9,E*6E
$GPGGA,161456,3646.9059,N,09703.6587,W,2,11,0.8,330.4,M,-26.7,M,,*73
$GPGSA,A,3,07,08,11,13,17,19,24,26,28,48,51,,1.5,0.8,1.3*3F
$GPRMC,161457,A,3646.9060,N,09703.6640,W,014.4,271.3,111010,004.9,E*6E
$GPGGA,161457,3646.9060,N,09703.6640,W,2,11,0.9,329.0,M,-26.7,M,,*7D
$GPGSA,A,3,07,08,11,13,17,19,24,26,28,48,51,,1.6,0.9,1.3*3D
$GPRMC,161458,A,3646.9061,N,09703.6701,W,016.1,271.3,111010,004.9,E*63
$GPGGA,161458,3646.9061,N,09703.6701,W,2,11,0.8,328.5,M,-26.7,M,,*72
$GPGSA,A,3,07,08,11,13,17,19,24,26,28,48,51,,1.5,0.8,1.3*3F
$GPRMC,161459,A,3646.9062,N,09703.6770,W,018.0,271.4,111010,004.9,E*6F
$GPGGA,161459,3646.9062,N,09703.6770,W,2,11,0.8,328.2,M,-26.7,M,,*71
$GPGSA,A,3,07,08,11,13,17,19,24,26,28,48,51,,1.5,0.8,1.3*3F
$GPRMC,161500,A,3646.9064,N,09703.6843,W,019.6,271.4,111010,004.9,E*6C
$GPGGA,161500,3646.9064,N,09703.6843,W,2,11,0.8,328.0,M,-26.7,M,,*77
$GPGSA,A,3,07,08,11,13,17,19,24,26,28,48,51,,1.5,0.8,1.3*3F
$GPRMC,161501,A,3646.9065,N,09703.6922,W,021.1,271.1,111010,004.9,E*63
$GPGGA,161501,3646.9065,N,09703.6922,W,2,11,0.8,327.8,M,-26.7,M,,*76
$GPGSA,A,3,07,08,11,13,17,19,24,26,28,48,51,,1.5,0.8,1.3*3F
$GPRMC,161502,A,3646.9065,N,09703.7005,W,022.6,270.8,111010,004.9,E*61
$GPGGA,161502,3646.9065,N,09703.7005,W,2,11,0.8,327.6,M,-26.7,M,,*76
$GPGSA,A,3,07,08,11,13,17,19,24,26,28,48,51,,1.5,0.8,1.3*3F
$GPRMC,161503,A,3646.9066,N,09703.7091,W,023.7,270.7,111010,004.9,E*61
$GPGGA,161503,3646.9066,N,09703.7091,W,2,11,0.8,327.5,M,-26.7,M,,*7A
$GPGSA,A,3,07,08,11,13,17,19,24,26,28,48,51,,1.5,0.8,1.3*3F
$GPRMC,161504,A,3646.9066,N,09703.7178,W,024.5,270.4,111010,004.9,E*66
$GPGGA,161504,3646.9066,N,09703.7178,W,2,11,0.8,327.5,M,-26.7,M,,*7B
$GPGSA,A,3,07,08,11,13,17,19,24,26,28,48,51,,1.5,0.8,1.3*3F
$GPRMC,161505,A,3646.9066,N,09703.7268,W,025.2,270.2,111010,004.9,E*65
$GPGGA,161505,3646.9066,N,09703.7268,W,2,11,0.8,327.4,M,-26.7,M,,*79
$GPGSA,A,3,07,08,11,13,17,19,24,26,28,48,51,,1.5,0.8,1.3*3F
$GPRMC,161506,A,3646.9067,N,09703.7359,W,025.8,270.6,111010,004.9,E*6A
$GPGGA,161506,3646.9067,N,09703.7359,W,2,11,0.8,327.2,M,-26.7,M,,*7E
$GPGSA,A,3,07,08,11,13,17,19,24,26,28,48,51,,1.5,0.8,1.3*3F
$GPRMC,161507,A,3646.9069,N,09703.7451,W,026.2,271.2,111010,004.9,E*66
$GPGGA,161507,3646.9069,N,09703.7451,W,2,11,0.8,327.0,M,-26.7,M,,*7C
$GPGSA,A,3,07,08,11,13,17,19,24,26,28,48,51,,1.5,0.8,1.3*3F
$GPRMC,161508,A,3646.9070,N,09703.7544,W,026.6,270.9,111010,004.9,E*6A
$GPGGA,161508,3646.9070,N,09703.7544,W,2,11,0.8,326.8,M,-26.7,M,,*77
$GPGSA,A,3,07,08,11,13,17,19,24,26,28,48,51,,1.5,0.8,1.3*3F
$GPRMC,161509,A,3646.9070,N,09703.7637,W,026.8,270.5,111010,004.9,E*6E
$GPGGA,161509,3646.9070,N,09703.7637,W,2,11,0.8,326.5,M,-26.7,M,,*7C
$GPGSA,A,3,07,08,11,13,17,19,24,26,28,48,51,,1.5,0.8,1.3*3F
$GPRMC,161510,A,3646.9070,N,09703.7731,W,027.0,270.2,111010,004.9,E*6F
$GPGGA,161510,3646.9070,N,09703.7731,W,2,11,0.8,326.3,M,-26.7,M,,*75
$GPGSA,A,3,07,08,11,13,17,19,24,26,28,48,51,,1.5,0.8,1.3*3F
$GPRMC,161511,A,3646.9070,N,09703.7825,W,027.1,270.2,111010,004.9,E*65
$GPGGA,161511,3646.9070,N,09703.7825,W,2,11,0.8,326.0,M,-26.7,M,,*7D
$GPGSA,A,3,07,08,11,13,17,19,24,26,28,48,51,,1.5,0.8,1.3*3F
$GPRMC,161512,A,3646.9070,N,09703.7919,W,027.1,270.2,111010,004.9,E*68
$GPGGA,161512,3646.9070,N,09703.7919,W,2,11,0.8,325.8,M,-26.7,M,,*7B
$GPGSA,A,3,07,08,11,13,17,19,24,26,28,48,51,,1.5,0.8,1.3*3F
$GPRMC,161513,A,3646.9071,N,09703.8012,W,027.0,270.3,111010,004.9,E*65
$GPGGA,161513,3646.9071,N,09703.8012,W,2,11,0.8,325.6,M,-26.7,M,,*78
$GPGSA,A,3,07,08,11,13,17,19,24,26,28,48,51,,1.5,0.8,1.3*3F
$GPRMC,161514,A,3646.9071,N,09703.8105,W,027.0,270.1,111010,004.9,E*67
$GPGGA,161514,3646.9071,N,09703.8105,W,2,11,0.8,325.5,M,-26.7,M,,*7B
$GPGSA,A,3,07,08,11,13,17,19,24,26,28,48,51,,1.5,0.8,1.3*3F
$GPRMC,161515,A,3646.9071,N,09703.8199,W,027.1,270.2,111010,004.9,E*61
$GPGGA,161515,3646.9071,N,09703.8199,W,2,11,0.8,325.3,M,-26.7,M,,*79
$GPGSA,A,3,07,08,11,13,17,19,24,26,28,48,51,,1.5,0.8,1.3*3F
$GPRMC,161516,A,3646.9071,N,09703.8294,W,027.2,270.2,111010,004.9,E*6F
$GPGGA,161516,3646.9071,N,09703.8294,W,2,11,0.9,325.1,M,-26.7,M,,*77
$GPGSA,A,3,07,08,11,13,17,19,24,26,28,48,51,,1.6,0.9,1.3*3D
$GPRMC,161517,A,3646.9071,N,09703.8389,W,027.3,270.2,111010,004.9,E*62
$GPGGA,161517,3646.9071,N,09703.8389,W,2,11,0.8,324.9,M,-26.7,M,,*73
$GPGSA,A,3,07,08,11,13,17,19,24,26,28,48,51,,1.5,0.8,1.3*3F
$GPRMC,161518,A,3646.9074,N,09703.8483,W,027.4,271.1,111010,004.9,E*60
$GPGGA,161518,3646.9074,N,09703.8483,W,2,11,0.8,324.7,M,-26.7,M,,*7A
$GPGSA,A,3,07,08,11,13,17,19,24,26,28,48,51,,1.5,0.8,1.3*3F
$GPRMC,161519,A,3646.9075,N,09703.8578,W,027.4,271.1,111010,004.9,E*65
$GPGGA,161519,3646.9075,N,09703.8578,W,2,11,0.9,324.6,M,-26.7,M,,*7F
$GPGSA,A,3,07,08,11,13,17,19,24,26,28,48,51,,1.6,0.9,1.4*3A
$GPRMC,161520,A,3646.9076,N,09703.8671,W,027.2,270.7,111010,004.9,E*67
$GPGGA,161520,3646.9076,N,09703.8671,W,2,11,0.9,324.4,M,-26.7,M,,*7E
$GPGSA,A,3,07,08,11,13,17,19,24,26,28,48,51,,1.7,0.9,1.4*3B
$GPRMC,161521,A,3646.9077,N,09703.8764,W,027.0,270.9,111010,004.9,E*6E
$GPGGA,161521,3646.9077,N,09703.8764,W,2,11,0.9,324.2,M,-26.7,M,,*7D
$GPGSA,A,3,07,08,11,13,17,19,24,26,28,48,51,,1.7,0.9,1.4*3B
$GPRMC,161522,A,3646.9077,N,09703.8856,W,026.8,270.5,111010,004.9,E*66
$GPGGA,161522,3646.9077,N,09703.8856,W,2,11,0.8,324.1,M,-26.7,M,,*72
$GPGSA,A,3,07,08,11,13,17,19,24,26,28,48,51,,1.5,0.8,1.3*3F
$GPRMC,161523,A,3646.9078,N,09703.8947,W,026.6,270.5,111010,004.9,E*67
$GPGGA,161523,3646.9078,N,09703.8947,W,2,11,0.8,323.9,M,-26.7,M,,*72
$GPGSA,A,3,07,08,11,13,17,19,24,26,28,48,51,,1.5,0.8,1.3*3F
$GPRMC,161524,A,3646.9077,N,09703.9038,W,026.5,269.9,111010,004.9,E*68
$GPGGA,161524,3646.9077,N,09703.9038,W,2,11,0.8,323.8,M,-26.7,M,,*7B
$GPGSA,A,3,07,08,11,13,17,19,24,26,28,48,51,,1.5,0.8,1.3*3F
$GPRMC,161525,A,3646.9077,N,09703.9128,W,026.3,270.0,111010,004.9,E*6E
$GPGGA,161525,3646.9077,N,09703.9128,W,2,11,0.9,323.7,M,-26.7,M,,*74
$GPGSA,A,3,07,08,11,13,17,19,24,26,28,48,51,,1.6,0.9,1.3*3D
$GPRMC,161526,A,3646.9078,N,09703.9218,W,026.2,270.4,111010,004.9,E*67
$GPGGA,161526,3646.9078,N,09703.9218,W,2,11,0.8,323.6,M,-26.7,M,,*78
$GPGSA,A,3,07,08,11,13,17,19,24,26,28,48,51,,1.5,0.8,1.3*3F
$GPRMC,161527,A,3646.9079,N,09703.9308,W,026.1,270.7,111010,004.9,E*67
$GPGGA,161527,3646.9079,N,09703.9308,W,2,11,0.8,323.5,M,-26.7,M,,*7B
$GPGSA,A,3,07,08,11,13,17,19,24,26,28,48,51,,1.5,0.8,1.3*3F
$GPRMC,161528,A,3646.9080,N,09703.9399,W,026.2,270.5,111010,004.9,E*67
$GPGGA,161528,3646.9080,N,09703.9399,W,2,11,0.9,323.4,M,-26.7,M,,*7A
$GPGSA,A,3,07,08,11,13,17,19,24,26,28,48,51,,1.6,0.9,1.3*3D
$GPRMC,161529,A,3646.9082,N,09703.9489,W,026.2,271.0,111010,004.9,E*66
$GPGGA,161529,3646.9082,N,09703.9489,W,2,11,0.8,323.3,M,-26.7,M,,*79
$GPGSA,A,3,07,08,11,13,17,19,24,26,28,48,51,,1.5,0.8,1.3*3F
$GPRMC,161530,A,3646.9082,N,09703.9580,W,026.1,270.8,111010,004.9,E*6C
$GPGGA,161530,3646.9082,N,09703.9580,W,2,11,0.9,323.2,M,-26.7,M,,*79
$GPGSA,A,3,07,08,11,13,17,19,24,26,28,48,51,,1.6,0.9,1.3*3D
$GPRMC,161531,A,3646.9080,N,09703.9670,W,026.2,269.8,111010,004.9,E*68
$GPGGA,161531,3646.9080,N,09703.9670,W,2,11,0.8,323.1,M,-26.7,M,,*74
$GPGSA,A,3,07,08,11,13,17,19,24,26,28,48,51,,1.5,0.8,1.3*3F
$GPRMC,161532,A,3646.9079,N,09703.9760,W,026.1,269.4,111010,004.9,E*62
$GPGGA,161532,3646.9079,N,09703.9760,W,2,11,0.9,323.0,M,-26.7,M,,*71
$GPGSA,A,3,07,08,11,13,17,19,24,26,28,48,51,,1.6,0.9,1.3*3D
$GPRMC,161533,A,3646.9081,N,09703.9849,W,025.9,270.3,111010,004.9,E*64
$GPGGA,161533,3646.9081,N,09703.9849,W,2,11,0.8,322.7,M,-26.7,M,,*74
$GPGSA,A,3,07,08,11,13,17,19,24,26,28,48,51,,1.5,0.8,1.3*3F
$GPRMC,161534,A,3646.9082,N,09703.9934,W,025.2,270.6,111010,004.9,E*65
$GPGGA,161534,3646.9082,N,09703.9934,W,2,11,0.9,322.6,M,-26.7,M,,*7B
$GPGSA,A,3,07,08,11,13,17,19,24,26,28,48,51,,1.6,0.9,1.3*3D
$GPRMC,161535,A,3646.9081,N,09704.0012,W,023.9,269.8,111010,004.9,E*6F
$GPGGA,161535,3646.9081,N,09704.0012,W,2,11,0.9,322.6,M,-26.7,M,,*7A
$GPGSA,A,3,07,08,11,13,17,19,24,26,28,48,51,,1.6,0.9,1.3*3D
$GPRMC,161536,A,3646.9080,N,09704.0081,W,022.0,269.5,111010,004.9,E*62
$GPGGA,161536,3646.9080,N,09704.0081,W,2,11,0.9,322.5,M,-26.7,M,,*71
$GPGSA,A,3,07,08,11,13,17,19,24,26,28,48,51,,1.6,0.9,1.3*3D
$GPRMC,161537,A,3646.9079,N,09704.0141,W,019.6,269.6,111010,004.9,E*65
$GPGGA,161537,3646.9079,N,09704.0141,W,2,11,0.8,322.6,M,-26.7,M,,*79
$GPGSA,A,3,07,08,11,13,17,19,24,26,28,48,51,,1.5,0.8,1.3*3F
$GPRMC,161538,A,3646.9082,N,09704.0188,W,016.7,271.1,111010,004.9,E*6B
$GPGGA,161538,3646.9082,N,09704.0188,W,2,11,0.8,322.4,M,-26.7,M,,*75
$GPGSA,A,3,07,08,11,13,17,19,24,26,28,48,51,,1.5,0.8,1.3*3F
$GPRMC,161539,A,3646.9083,N,09704.0225,W,013.7,271.8,111010,004.9,E*63
$GPGGA,161539,3646.9083,N,09704.0225,W,2,11,0.9,322.3,M,-26.7,M,,*77
$GPGSA,A,3,07,08,11,13,17,19,24,26,28,48,51,,1.6,0.9,1.3*3D
$GPRMC,161540,A,3646.9085,N,09704.0253,W,010.9,272.6,111010,004.9,E*6A
$GPGGA,161540,3646.9085,N,09704.0253,W,2,11,0.8,321.9,M,-26.7,M,,*76
$GPGSA,A,3,07,08,11,13,17,19,24,26,28,48,51,,1.5,0.8,1.3*3F
$GPRMC,161541,A,3646.9086,N,09704.0277,W,008.8,273.1,111010,004.9,E*60
$GPGGA,161541,3646.9086,N,09704.0277,W,2,11,0.8,321.3,M,-26.7,M,,*78
$GPGSA,A,3,07,08,11,13,17,19,24,26,28,48,51,,1.5,0.8,1.3*3F
$GPRMC,161542,A,3646.9087,N,09704.0299,W,007.7,273.5,111010,004.9,E*66
$GPGGA,161542,3646.9087,N,09704.0299,W,2,11,0.8,321.2,M,-26.7,M,,*7B
$GPGSA,A,3,07,08,11,13,17,19,24,26,28,48,51,,1.5,0.8,1.3*3F
$GPRMC,161543,A,3646.9089,N,09704.0318,W,006.6,274.4,111010,004.9,E*67
$GPGGA,161543,3646.9089,N,09704.0318,W,2,11,0.9,321.1,M,-26.7,M,,*7E
$GPGSA,A,3,07,08,11,13,17,19,24,26,28,48,51,,1.6,0.9,1.3*3D
$GPRMC,161544,A,3646.9089,N,09704.0326,W,004.4,274.8,111010,004.9,E*61
$GPGGA,161544,3646.9089,N,09704.0326,W,2,11,0.9,321.0,M,-26.7,M,,*75
$GPGSA,A,3,07,08,11,13,17,19,24,26,28,48,51,,1.6,0.9,1.3*3D
$GPRMC,161545,A,3646.9089,N,09704.0323,W,001.7,275.2,111010,004.9,E*68
$GPGGA,161545,3646.9089,N,09704.0323,W,2,11,0.9,321.1,M,-26.7,M,,*70
$GPGSA,A,3,07,08,11,13,17,19,24,26,28,48,51,,1.6,0.9,1.3*3D
$GPRMC,161546,A,3646.9089,N,09704.0317,W,000.0,275.2,111010,004.9,E*6A
$GPGGA,161546,3646.9089,N,09704.0317,W,2,11,0.9,321.0,M,-26.7,M,,*75
$GPGSA,A,3,07,08,11,13,17,19,24,26,28,48,51,,1.6,0.9,1.3*3D
$GPRMC,161547,A,3646.9089,N,09704.0317,W,000.0,275.2,111010,004.9,E*6B
$GPGGA,161547,3646.9089,N,09704.0317,W,2,11,0.9,320.9,M,-26.7,M,,*7C
$GPGSA,A,3,07,08,11,13,17,19,24,26,28,48,51,,1.6,0.9,1.3*3D
$GPRMC,161548,A,3646.9089,N,09704.0317,W,000.0,275.2,111010,004.9,E*64
$GPGGA,161548,3646.9089,N,09704.0317,W,2,11,0.9,320.7,M,-26.7,M,,*7D
$GPGSA,A,3,07,08,11,13,17,19,24,26,28,48,51,,1.6,0.9,1.3*3D
$GPRMC,161549,A,3646.9089,N,09704.0317,W,000.0,275.2,111010,004.9,E*65
$GPGGA,161549,3646.9089,N,09704.0317,W,2,11,0.9,320.5,M,-26.7,M,,*7E
$GPGSA,A,3,07,08,11,13,17,19,24,26,28,48,51,,1.6,0.9,1.3*3D
$GPRMC,161550,A,3646.9089,N,09704.0317,W,000.0,275.2,111010,004.9,E*6D
$GPGGA,161550,3646.9089,N,09704.0317,W,2,11,0.9,320.4,M,-26.7,M,,*77
$GPGSA,A,3,07,08,11,13,17,19,24,26,28,48,51,,1.6,0.9,1.3*3D
$GPRMC,161551,A,3646.9089,N,09704.0317,W,000.0,275.2,111010,004.9,E*6C
$GPGGA,161551,3646.9089,N,09704.0317,W,2,11,0.8,320.3,M,-26.7,M,,*70
$GPGSA,A,3,07,08,11,13,17,19,24,26,28,48,51,,1.5,0.8,1.3*3F
$GPRMC,161552,A,3646.9089,N,09704.0317,W,000.0,275.2,111010,004.9,E*6F
$GPGGA,161552,3646.9089,N,09704.0317,W,2,11,0.8,320.3,M,-26.7,M,,*73
$GPGSA,A,3,07,08,11,13,17,19,24,26,28,48,51,,1.5,0.8,1.3*3F
$GPRMC,161553,A,3646.9089,N,09704.0318,W,000.3,272.0,111010,004.9,E*67
$GPGGA,161553,3646.9089,N,09704.0318,W,2,11,0.8,320.2,M,-26.7,M,,*7C
$GPGSA,A,3,07,08,11,13,17,19,24,26,28,48,51,,1.5,0.8,1.3*3F
$GPRMC,161554,A,3646.9092,N,09704.0339,W,003.0,275.7,111010,004.9,E*69
$GPGGA,161554,3646.9092,N,09704.0339,W,2,11,0.8,320.1,M,-26.7,M,,*71
$GPGSA,A,3,07,08,11,13,17,19,24,26,28,48,51,,1.5,0.8,1.3*3F
$GPRMC,161555,A,3646.9094,N,09704.0378,W,007.1,274.2,111010,004.9,E*6A
$GPGGA,161555,3646.9094,N,09704.0378,W,2,11,0.9,320.3,M,-26.7,M,,*70
$GPGSA,A,3,07,08,11,13,17,19,24,26,28,48,51,,1.6,0.9,1.3*3D
$GPRMC,161556,A,3646.9090,N,09704.0425,W,010.4,267.4,111010,004.9,E*65
$GPGGA,161556,3646.9090,N,09704.0425,W,2,11,0.9,320.5,M,-26.7,M,,*7E
$GPGSA,A,3,07,08,11,13,17,19,24,26,28,48,51,,1.6,0.9,1.3*3D
$GPRMC,161557,A,3646.9065,N,09704.0472,W,012.8,248.0,111010,004.9,E*6B
$GPGGA,161557,3646.9065,N,09704.0472,W,2,11,0.9,320.4,M,-26.7,M,,*76
$GPGSA,A,3,07,08,11,13,17,19,24,26,28,48,51,,1.6,0.9,1.3*3D
$GPRMC,161558,A,3646.9019,N,09704.0504,W,015.1,225.0,111010,004.9,E*6A
$GPGGA,161558,3646.9019,N,09704.0504,W,2,11,0.9,320.5,M,-26.7,M,,*73
$GPGSA,A,3,07,08,11,13,17,19,24,26,28,48,51,,1.6,0.9,1.3*3D
$GPRMC,161559,A,3646.8957,N,09704.0514,W,017.8,202.2,111010,004.9,E*64
$GPGGA,161559,3646.8957,N,09704.0514,W,2,11,0.8,320.5,M,-26.7,M,,*70
$GPGSA,A,3,07,08,11,13,17,19,24,26,28,48,51,,1.5,0.8,1.3*3F
$GPRMC,161600,A,3646.8883,N,09704.0504,W,021.6,185.1,111010,004.9,E*66
$GPGGA,161600,3646.8883,N,09704.0504,W,2,11,0.9,320.3,M,-26.7,M,,*71
$GPGSA,A,3,07,08,11,13,17,19,24,26,28,48,51,,1.6,0.9,1.3*3D
$GPRMC,161601,A,3646.8800,N,09704.0495,W,025.7,179.2,111010,004.9,E*60
$GPGGA,161601,3646.8800,N,09704.0495,W,2,11,0.8,320.4,M,-26.7,M,,*74
$GPGSA,A,3,07,08,11,13,17,19,24,26,28,48,51,,1.5,0.8,1.3*3F
$GPRMC,161602,A,3646.8706,N,09704.0493,W,029.6,179.1,111010,004.9,E*62
$GPGGA,161602,3646.8706,N,09704.0493,W,2,11,0.8,320.5,M,-26.7,M,,*79
$GPGSA,A,3,07,08,11,13,17,19,24,26,28,48,51,,1.5,0.8,1.3*3F
$GPRMC,161603,A,3646.8601,N,09704.0492,W,033.7,179.5,111010,004.9,E*6A
$GPGGA,161603,3646.8601,N,09704.0492,W,2,11,0.8,320.6,M,-26.7,M,,*7C
$GPGSA,A,3,07,08,11,13,17,19,24,26,28,48,51,,1.5,0.8,1.3*3F
$GPRMC,161604,A,3646.8484,N,09704.0493,W,037.8,179.8,111010,004.9,E*65
$GPGGA,161604,3646.8484,N,09704.0493,W,2,11,0.8,320.6,M,-26.7,M,,*75
$GPGSA,A,3,07,08,11,13,17,19,24,26,28,48,51,,1.5,0.8,1.3*3F
$GPRMC,161605,A,3646.8355,N,09704.0493,W,042.0,179.9,111010,004.9,E*64
$GPGGA,161605,3646.8355,N,09704.0493,W,2,11,0.8,320.7,M,-26.7,M,,*7E
$GPGSA,A,3,07,08,11,13,17,19,24,26,28,48,51,,1.5,0.8,1.3*3F
$GPRMC,161606,A,3646.8215,N,09704.0492,W,046.2,179.8,111010,004.9,E*64
$GPGGA,161606,3646.8215,N,09704.0492,W,2,11,0.8,320.7,M,-26.7,M,,*79
$GPGSA,A,3,07,08,11,13,17,19,24,26,28,48,51,,1.5,0.8,1.3*3F
$GPRMC,161607,A,3646.8065,N,09704.0493,W,050.1,180.0,111010,004.9,E*6B
$GPGGA,161607,3646.8065,N,09704.0493,W,2,11,0.8,320.7,M,-26.7,M,,*7C
$GPGSA,A,3,07,08,11,13,17,19,24,26,28,48,51,,1.5,0.8,1.3*3F
$GPRMC,161608,A,3646.7904,N,09704.0493,W,053.9,180.0,111010,004.9,E*6E
$GPGGA,161608,3646.7904,N,09704.0493,W,2,11,0.8,320.8,M,-26.7,M,,*7D
$GPGSA,A,3,07,08,11,13,17,19,24,26,28,48,51,,1.5,0.8,1.3*3F
$GPRMC,161609,A,3646.7739,N,09704.0492,W,056.6,179.8,111010,004.9,E*6A
$GPGGA,161609,3646.7739,N,09704.0492,W,2,11,0.8,321.0,M,-26.7,M,,*74
$GPGSA,A,3,07,08,11,13,17,19,24,26,28,48,51,,1.5,0.8,1.3*3F
$GPRMC,161610,A,3646.7577,N,09704.0490,W,057.3,179.7,111010,004.9,E*63
$GPGGA,161610,3646.7577,N,09704.0490,W,2,11,0.8,321.2,M,-26.7,M,,*74
$GPGSA,A,3,07,08,11,13,17,19,24,26,28,48,51,,1.5,0.8,1.3*3F
$GPRMC,161611,A,3646.7423,N,09704.0490,W,056.4,179.8,111010,004.9,E*6B
$GPGGA,161611,3646.7423,N,09704.0490,W,2,11,0.8,321.2,M,-26.7,M,,*75
$GPGSA,A,3,07,08,11,13,17,19,24,26,28,48,51,,1.5,0.8,1.3*3F
$GPRMC,161612,A,3646.7271,N,09704.0490,W,055.4,179.9,111010,004.9,E*6B
$GPGGA,161612,3646.7271,N,09704.0490,W,2,11,0.8,321.3,M,-26.7,M,,*76
$GPGSA,A,3,07,08,11,13,17,19,24,26,28,48,51,,1.5,0.8,1.3*3F
$GPRMC,161613,A,3646.7122,N,09704.0490,W,054.4,179.8,111010,004.9,E*6F
$GPGGA,161613,3646.7122,N,09704.0490,W,2,11,0.8,321.7,M,-26.7,M,,*76
$GPGSA,A,3,07,08,11,13,17,19,24,26,28,48,51,,1.5,0.8,1.3*3F
$GPRMC,161614,A,3646.6976,N,09704.0488,W,053.5,179.7,111010,004.9,E*60
$GPGGA,161614,3646.6976,N,09704.0488,W,2,11,0.8,321.8,M,-26.7,M,,*7F
$GPGSA,A,3,07,08,11,13,17,19,24,26,28,48,51,,1.5,0.8,1.3*3F
$GPRMC,161615,A,3646.6828,N,09704.0481,W,053.2,178.8,111010,004.9,E*6B
$GPGGA,161615,3646.6828,N,09704.0481,W,2,11,0.8,322.0,M,-26.7,M,,*76
$GPGSA,A,3,07,08,11,13,17,19,24,26,28,48,51,,1.5,0.8,1.3*3F
$GPRMC,161616,A,3646.6681,N,09704.0467,W,053.1,177.2,111010,004.9,E*6B
$GPGGA,161616,3646.6681,N,09704.0467,W,2,11,0.8,322.2,M,-26.7,M,,*72
$GPGSA,A,3,07,08,11,13,17,19,24,26,28,48,51,,1.5,0.8,1.3*3F
$GPRMC,161617,A,3646.6535,N,09704.0447,W,053.0,175.5,111010,004.9,E*60
$GPGGA,161617,3646.6535,N,09704.0447,W,2,11,0.8,322.3,M,-26.7,M,,*7C
$GPGSA,A,3,07,08,11,13,17,19,24,26,28,48,51,,1.5,0.8,1.3*3F
$GPRMC,161618,A,3646.6389,N,09704.0422,W,052.9,173.8,111010,004.9,E*6E
$GPGGA,161618,3646.6389,N,09704.0422,W,2,11,0.8,322.4,M,-26.7,M,,*76
$GPGSA,A,3,07,08,11,13,17,19,24,26,28,48,51,,1.5,0.8,1.3*3F
$GPRMC,161619,A,3646.6245,N,09704.0390,W,052.7,171.8,111010,004.9,E*6C
